{"table":"stop","rows":[{"stop_id":1,"stop_name":"ЛЭП","stop_name_short":"ЛЭП","stop_name_abbr":"ЛЭП","stop_direction":"в сторону Сельской улицы","stop_type":2,"stop_lat":56.908430566888,"stop_long":53.259645707598,"stop_final_name":null,"stop_demand":0,"stop_start_time":null,"stop_photo_exist":true},{"stop_id":2,"stop_name":"ЛЭП","stop_name_short":"ЛЭП","stop_name_abbr":"ЛЭП","stop_direction":"в сторону РКБ №1","stop_type":    2,"stop_lat":56.908374899523,"stop_long":53.25931845134,"stop_final_name":null,"stop_demand":0,"stop_start_time":null,"stop_photo_exist":true},{"stop_id":3,"stop_name":"РКБ №1","stop_name_short":"РКБ №1","stop_name_abbr":"РКБ 1","stop_direction":"в сторону Сельской улицы","stop_type":2,"stop_lat":56.903691824364,"stop_long":53.256004566257,"stop_final_name":"РКБ","stop_demand":0,"stop_start_time":null,"stop_photo_exist":true},{"stop_id":4,"stop_name":"РКБ №1","stop_name_short":"РКБ №1","stop_name_abbr":"РКБ 1","stop_direction":"в сторону Воткинского шоссе","stop_type":2,"stop_lat":56.90194846405,"stop_long":53.255461444836,"stop_final_name":null,"stop_demand":0,"stop_start_time":null,"stop_photo_exist":true},{"stop_id":5,"stop_name":"микрорайон Столичный","stop_name_short":"мкрн Столичный","stop_name_abbr":"Столичны","stop_direction":"в сторону улицы 9 Января","stop_type":2,"stop_lat":56.890129533998,"stop_long":53.25408280037,"stop_final_name":null,"stop_demand":0,"stop_start_time":null,"stop_photo_exist":true},{"stop_id":6,"stop_name":"Комсомольская","stop_name_short":"Комсомольская","stop_name_abbr":"Комсомол","stop_direction":"в сторону Воткинского шоссе","stop_type":2,"stop_lat":56.891711816139,"stop_long":53.261362298275,"stop_final_name":null,"stop_demand":0,"stop_start_time":null,"stop_photo_exist":true},{"stop_id":7,"stop_name":"Баня","stop_name_short":"Баня","stop_name_abbr":"Баня","stop_direction":"в сторону улицы Дзержинского","stop_type":2,"stop_lat":56.889738688312,"stop_long":53.257389409099,"stop_final_name":null,"stop_demand":0,"stop_start_time":null,"stop_photo_exist":true},{"stop_id":8,"stop_name":"улица 9 Января","stop_name_short":"ул. 9 Января","stop_name_abbr":"9 Января","stop_direction":"в сторону улицы Ворошилова","stop_type":2,"stop_lat":56.884212777294,"stop_long":53.258315302663,"stop_final_name":"9 Января","stop_demand":0,"stop_start_time":null,"stop_photo_exist":true},{"stop_id":9,"stop_name":"улица Комсомольская","stop_name_short":"ул. Комсомольская","stop_name_abbr":"Комсомол","stop_direction":"в сторону РКБ №1","stop_type":2,"stop_lat":56.891911080996,"stop_long":53.261587685579,"stop_final_name":null,"stop_demand":0,"stop_start_time":null,"stop_photo_exist":true},{"stop_id":10,"stop_name":"Баня","stop_name_short":"Баня","stop_name_abbr":"Баня","stop_direction":"в сторону Воткинского шоссе","stop_type":2,"stop_lat":56.889467277558,"stop_long":53.257929116922,"stop_final_name":null,"stop_demand":0,"stop_start_time":null,"stop_photo_exist":true},{"stop_id":11,"stop_name":"микрорайон Столичный","stop_name_short":"мкрн Столичный","stop_name_abbr":"Столичны","stop_direction":"в сторону улицы 9 Января","stop_type":2,"stop_lat":56.890000577455,"stop_long":53.254613884366,"stop_final_name":null,"stop_demand":0,"stop_start_time":null,"stop_photo_exist":true},{"stop_id":12,"stop_name":"Русский дом","stop_name_short":"Русский дом","stop_name_abbr":"Русс дом","stop_direction":"в сторону улицы 9 Января","stop_type":2,"stop_lat":56.888552975372,"stop_long":53.246406336941,"stop_final_name":null,"stop_demand":0,"stop_start_time":null,"stop_photo_exist":true},{"stop_id":13,"stop_name":"ГКБ №7","stop_name_short":"ГКБ №7","stop_name_abbr":"ГКБ 7","stop_direction":"в сторону Воткинского шоссе","stop_type":2,"stop_lat":56.898743588578,"stop_long":53.255649192731,"stop_final_name":null,"stop_demand":0,"stop_start_time":null,"stop_photo_exist":true},{"stop_id":14,"stop_name":"ГКБ №7","stop_name_short":"ГКБ №7","stop_name_abbr":"ГКБ 7","stop_direction":"в сторону Сельской улицы","stop_type":2,"stop_lat":56.898953076512,"stop_long":53.255784737227,"stop_final_name":null,"stop_demand":0,"stop_start_time":null,"stop_photo_exist":true},{"stop_id":15,"stop_name":"завод Старки","stop_name_short":"з-д Старки","stop_name_abbr":"Старки","stop_direction":"в сторону Цеха цветного литья","stop_type":2,"stop_lat":56.887390944472,"stop_long":53.326616637579,"stop_final_name":null,"stop_demand":0,"stop_start_time":null,"stop_photo_exist":true},{"stop_id":16,"stop_name":"База УПТК","stop_name_short":"База УПТК","stop_name_abbr":"УПТК","stop_direction":"в сторону Воткинского шоссе","stop_type":2,"stop_lat":56.889051514478,"stop_long":53.319331641332,"stop_final_name":null,"stop_demand":0,"stop_start_time":null,"stop_photo_exist":true},{"stop_id":17,"stop_name":"Водоканал","stop_name_short":"Водоканал","stop_name_abbr":"Водокан","stop_direction":"в сторону города Воткинска","stop_type":2,"stop_lat":56.901357627674,"stop_long":53.321082798165,"stop_final_name":null,"stop_demand":0,"stop_start_time":null,"stop_photo_exist":true},{"stop_id":18,"stop_name":"Водоканал","stop_name_short":"Водоканал","stop_name_abbr":"Водокан","stop_direction":"в сторону Копрового проезда","stop_type":2,"stop_lat":56.901333265061,"stop_long":53.320252883861,"stop_final_name":null,"stop_demand":0,"stop_start_time":null,"stop_photo_exist":true},{"stop_id":19,"stop_name":"Металлургический комплекс","stop_name_short":"Металлургический к-с","stop_name_abbr":"Мет комп","stop_direction":"в сторону Копрового проезда","stop_type":2,"stop_lat":56.906469611786,"stop_long":53.347446028413,"stop_final_name":null,"stop_demand":0,"stop_start_time":null,"stop_photo_exist":true},{"stop_id":20,"stop_name":"микрорайон Богатыри","stop_name_short":"мкрн. Богатыри","stop_name_abbr":"Богатыри","stop_direction":"в сторону поселка Смирново","stop_type":2,"stop_lat":56.904534239489,"stop_long":53.337646333887,"stop_final_name":null,"stop_demand":0,"stop_start_time":null,"stop_photo_exist":true},{"stop_id":21,"stop_name":"Металлургический комплекс","stop_name_short":"Металлургический к-с","stop_name_abbr":"Мет комп","stop_direction":"в сторону города Воткинска","stop_type":2,"stop_lat":56.906369249531,"stop_long":53.347805471266,"stop_final_name":null,"stop_demand":0,"stop_start_time":null,"stop_photo_exist":true},{"stop_id":22,"stop_name":"микрорайон Богатыри","stop_name_short":"мкрн. Богатыри","stop_name_abbr":"Богатыри","stop_direction":"в сторону Копрового проезда","stop_type":2,"stop_lat":56.904022753748,"stop_long":53.333832641502,"stop_final_name":null,"stop_demand":0,"stop_start_time":null,"stop_photo_exist":true},{"stop_id":23,"stop_name":"Столовая","stop_name_short":"Столовая","stop_name_abbr":"Столовая","stop_direction":"в сторону Воткинского шоссе","stop_type":2,"stop_lat":56.905009985416,"stop_long":53.384998289369,"stop_final_name":null,"stop_demand":0,"stop_start_time":null,"stop_photo_exist":true},{"stop_id":24,"stop_name":"Удмуртское региональное нефтепроводное управление","stop_name_short":"УРНУ","stop_name_abbr":"УРНУ","stop_direction":"в сторону поселка Смирново","stop_type":2,"stop_lat":56.900860073457,"stop_long":53.379904072999,"stop_final_name":null,"stop_demand":0,"stop_start_time":null,"stop_photo_exist":true},{"stop_id":25,"stop_name":"поселок Смирново","stop_name_short":"пос. Смирново","stop_name_abbr":"Смирново","stop_direction":"в сторону города Ижевска","stop_type":2,"stop_lat":56.900813568298,"stop_long":53.384065608384,"stop_final_name":null,"stop_demand":0,"stop_start_time":null,"stop_photo_exist":true},{"stop_id":26,"stop_name":"Удмуртское региональное нефтепроводное управление","stop_name_short":"УРНУ","stop_name_abbr":"УРНУ","stop_direction":"в сторону Воткинского шоссе","stop_type":2,"stop_lat":56.90067885999,"stop_long":53.379334271614,"stop_final_name":null,"stop_demand":0,"stop_start_time":null,"stop_photo_exist":true},{"stop_id":27,"stop_name":"Столовая","stop_name_short":"Столовая","stop_name_abbr":"Столовая","stop_direction":"в сторону поселка Смирново","stop_type":2,"stop_lat":56.904680147778,"stop_long":53.385122055653,"stop_final_name":null,"stop_demand":0,"stop_start_time":null,"stop_photo_exist":true},{"stop_id":28,"stop_name":"поселок Смирново","stop_name_short":"пос. Смирново","stop_name_abbr":"Смирново","stop_direction":"в сторону Управления буровых работ","stop_type":2,"stop_lat":56.900898140928,"stop_long":53.383490776434,"stop_final_name":null,"stop_demand":0,"stop_start_time":null,"stop_photo_exist":true},{"stop_id":29,"stop_name":"Промышленные базы","stop_name_short":"Промышленные базы","stop_name_abbr":"Промбазы","stop_direction":"конечная остановка","stop_type":2,"stop_lat":56.887322925335,"stop_long":53.368864877344,"stop_final_name":"Промышленных баз","stop_demand":0,"stop_start_time":null,"stop_photo_exist":false},{"stop_id":30,"stop_name":"Люлли","stop_name_short":"Люлли","stop_name_abbr":"Люлли","stop_direction":"конечная остановка","stop_type":2,"stop_lat":56.784746551258,"stop_long":53.300009553322,"stop_final_name":"Люлли","stop_demand":0,"stop_start_time":null,"stop_photo_exist":true},{"stop_id":31,"stop_name":"поворот на Люлли","stop_name_short":"поворот на Люлли","stop_name_abbr":"~Люлли","stop_direction":"в сторону города Ижевска","stop_type":2,"stop_lat":56.78189614272,"stop_long":53.301821787145,"stop_final_name":null,"stop_demand":0,"stop_start_time":null,"stop_photo_exist":true},{"stop_id":32,"stop_name":"Новый Чультем","stop_name_short":"Новый Чультем","stop_name_abbr":"Чультем","stop_direction":"в сторону Люлинской улицы","stop_type":2,"stop_lat":56.773989504017,"stop_long":53.259720538858,"stop_final_name":null,"stop_demand":0,"stop_start_time":null,"stop_photo_exist":false},{"stop_id":33,"stop_name":"Новый Чультем","stop_name_short":"Новый Чультем","stop_name_abbr":"Чультем","stop_direction":"в сторону города Ижевска","stop_type":2,"stop_lat":56.774276338338,"stop_long":53.257743369948,"stop_final_name":null,"stop_demand":0,"stop_start_time":null,"stop_photo_exist":false},{"stop_id":35,"stop_name":"Садоогороды","stop_name_short":"Садоогороды","stop_name_abbr":"С\/огород","stop_direction":"в сторону поселка Вараксино","stop_type":2,"stop_lat":56.87306686059,"stop_long":53.076380789719,"stop_final_name":"садоогородов","stop_demand":0,"stop_start_time":null,"stop_photo_exist":true},{"stop_id":36,"stop_name":"Птицефабрика","stop_name_short":"Птицефабрика","stop_name_abbr":"Птицфабр","stop_direction":"в сторону поселка Вараксино","stop_type":2,"stop_lat":56.871460732505,"stop_long":53.079905701729,"stop_final_name":null,"stop_demand":0,"stop_start_time":null,"stop_photo_exist":true},{"stop_id":37,"stop_name":"Птицефабрика","stop_name_short":"Птицефабрика","stop_name_abbr":"Птицфабр","stop_direction":"в сторону города Ижевска","stop_type":2,"stop_lat":56.871102603776,"stop_long":53.080322932604,"stop_final_name":null,"stop_demand":0,"stop_start_time":null,"stop_photo_exist":true},{"stop_id":38,"stop_name":"Садоогороды","stop_name_short":"Садоогороды","stop_name_abbr":"Садогор","stop_direction":"в сторону города Ижевска","stop_type":2,"stop_lat":56.87286159153,"stop_long":53.076524855583,"stop_final_name":null,"stop_demand":0,"stop_start_time":null,"stop_photo_exist":true},{"stop_id":39,"stop_name":"Малиновая гора","stop_name_short":"Малиновая гора","stop_name_abbr":"М гора","stop_direction":"в сторону поселка Вараксино","stop_type":2,"stop_lat":56.857496981287,"stop_long":53.107442879939,"stop_final_name":"Малиновой горы","stop_demand":0,"stop_start_time":null,"stop_photo_exist":true},{"stop_id":40,"stop_name":"Малиновая гора","stop_name_short":"Малиновая гора","stop_name_abbr":"М гора","stop_direction":"в сторону улицы Шевченко","stop_type":2,"stop_lat":56.857367750601,"stop_long":53.107054021083,"stop_final_name":"Малиновой горы","stop_demand":0,"stop_start_time":null,"stop_photo_exist":true},{"stop_id":41,"stop_name":"улица Аристов Ключ","stop_name_short":"ул. Аристов Ключ","stop_name_abbr":"АристовК","stop_direction":"в сторону улицы Баранова","stop_type":2,"stop_lat":56.835811902977,"stop_long":53.115998895292,"stop_final_name":null,"stop_demand":0,"stop_start_time":null,"stop_photo_exist":true},{"stop_id":42,"stop_name":"Автокооператив Искра","stop_name_short":"Автокооператив Искра","stop_name_abbr":"Искра","stop_direction":"в сторону улицы Олега Кошевого","stop_type":2,"stop_lat":56.833762402752,"stop_long":53.121141840125,"stop_final_name":null,"stop_demand":0,"stop_start_time":null,"stop_photo_exist":true},{"stop_id":43,"stop_name":"Ветеринарная лечебница","stop_name_short":"Ветлечебница","stop_name_abbr":"Вет леч","stop_direction":"в сторону улицы Шевченко","stop_type":2,"stop_lat":56.833834103982,"stop_long":53.126341738147,"stop_final_name":null,"stop_demand":0,"stop_start_time":null,"stop_photo_exist":true},{"stop_id":44,"stop_name":"поселок Машиностроителей","stop_name_short":"пос. Машиностроителей","stop_name_abbr":"Машиност","stop_direction":"конечная остановка","stop_type":2,"stop_lat":56.83257678163,"stop_long":53.111099663396,"stop_final_name":"Машиностроителя","stop_demand":0,"stop_start_time":null,"stop_photo_exist":true},{"stop_id":45,"stop_name":"Производственная компания Ника","stop_name_short":"ПК Ника","stop_name_abbr":"Ника","stop_direction":"в сторону Заречного шоссе","stop_type":2,"stop_lat":56.840752258304,"stop_long":53.125562090312,"stop_final_name":null,"stop_demand":0,"stop_start_time":null,"stop_photo_exist":true},{"stop_id":46,"stop_name":"улица Постольская","stop_name_short":"ул. Постольская","stop_name_abbr":"Постольс","stop_direction":"в сторону улицы Крылова","stop_type":2,"stop_lat":56.837061352614,"stop_long":53.116633285546,"stop_final_name":null,"stop_demand":0,"stop_start_time":null,"stop_photo_exist":true},{"stop_id":47,"stop_name":"9-й километр","stop_name_short":"9-й км","stop_name_abbr":"9-й км","stop_direction":"в сторону поселка Игерман","stop_type":2,"stop_lat":56.908388316485,"stop_long":53.132159342436,"stop_final_name":null,"stop_demand":0,"stop_start_time":null,"stop_photo_exist":true},{"stop_id":48,"stop_name":"9-й километр","stop_name_short":"9-й км","stop_name_abbr":"9-й км","stop_direction":"в сторону Песочной улицы","stop_type":2,"stop_lat":56.907681029496,"stop_long":53.133089970855,"stop_final_name":null,"stop_demand":0,"stop_start_time":null,"stop_photo_exist":true},{"stop_id":49,"stop_name":"10-й километр","stop_name_short":"10-й км","stop_name_abbr":"10-й км","stop_direction":"в сторону поселка Игерман","stop_type":2,"stop_lat":56.915934959351,"stop_long":53.119555323194,"stop_final_name":null,"stop_demand":0,"stop_start_time":null,"stop_photo_exist":false},{"stop_id":50,"stop_name":"10-й километр","stop_name_short":"10-й км","stop_name_abbr":"10-й км","stop_direction":"в сторону улицы Песочной","stop_type":2,"stop_lat":56.915694779044,"stop_long":53.119275729308,"stop_final_name":null,"stop_demand":0,"stop_start_time":null,"stop_photo_exist":false},{"stop_id":51,"stop_name":"11-й километр","stop_name_short":"11-й км","stop_name_abbr":"11-й км","stop_direction":"В сторону Игермана","stop_type":2,"stop_lat":56.922533540328,"stop_long":53.12151267509,"stop_final_name":null,"stop_demand":0,"stop_start_time":null,"stop_photo_exist":false},{"stop_id":52,"stop_name":"11-й километр","stop_name_short":"11-й км","stop_name_abbr":"11-й км","stop_direction":"В сторону улицы Песочной","stop_type":2,"stop_lat":56.922287617213,"stop_long":53.121215576779,"stop_final_name":null,"stop_demand":0,"stop_start_time":null,"stop_photo_exist":false},{"stop_id":53,"stop_name":"7-й километр","stop_name_short":"7-й км","stop_name_abbr":"7-й км","stop_direction":"в сторону поселка Игерман","stop_type":2,"stop_lat":56.895982679961,"stop_long":53.15040883932,"stop_final_name":null,"stop_demand":0,"stop_start_time":null,"stop_photo_exist":true},{"stop_id":54,"stop_name":"7-й километр","stop_name_short":"7-й км","stop_name_abbr":"7-й км","stop_direction":"в сторону Песочной улицы","stop_type":2,"stop_lat":56.896035520177,"stop_long":53.149926151379,"stop_final_name":null,"stop_demand":0,"stop_start_time":null,"stop_photo_exist":true},{"stop_id":55,"stop_name":"5-й километр","stop_name_short":"5-й км","stop_name_abbr":"5-й км","stop_direction":"в сторону поселка Игерман","stop_type":2,"stop_lat":56.890006416821,"stop_long":53.156546960755,"stop_final_name":null,"stop_demand":0,"stop_start_time":null,"stop_photo_exist":true},{"stop_id":56,"stop_name":"5-й километр","stop_name_short":"5-й км","stop_name_abbr":"5-й км","stop_direction":"в сторону улицы Песочной","stop_type":2,"stop_lat":56.889631370645,"stop_long":53.156482641381,"stop_final_name":null,"stop_demand":0,"stop_start_time":null,"stop_photo_exist":true},{"stop_id":57,"stop_name":"садоводческое общество Пазелинка","stop_name_short":"с\/о Пазелинка","stop_name_abbr":"Пазелин","stop_direction":"в сторону Ижевской кольцевой автомобильной дороги","stop_type":2,"stop_lat":56.913726091157,"stop_long":53.232652411289,"stop_final_name":null,"stop_demand":0,"stop_start_time":null,"stop_photo_exist":false},{"stop_id":58,"stop_name":"садоводческое общество Пазелинка","stop_name_short":"с\/о Пазелинка","stop_name_abbr":"Пазелин","stop_direction":"в сторону города Ижевска","stop_type":2,"stop_lat":56.913521106972,"stop_long":53.232287605452,"stop_final_name":null,"stop_demand":0,"stop_start_time":null,"stop_photo_exist":false},{"stop_id":59,"stop_name":"улица Школьная","stop_name_short":"ул. Школьная","stop_name_abbr":"Школьная","stop_direction":"в сторону сквера Металлургов","stop_type":2,"stop_lat":56.881366542923,"stop_long":53.192120425669,"stop_final_name":null,"stop_demand":0,"stop_start_time":null,"stop_photo_exist":true},{"stop_id":60,"stop_name":"Городок Металлургов","stop_name_short":"гор. Металлургов","stop_name_abbr":"г Металл","stop_direction":"в сторону сквера Металлургов","stop_type":2,"stop_lat":56.881137085529,"stop_long":53.18606200773,"stop_final_name":"Металлурга","stop_demand":0,"stop_start_time":null,"stop_photo_exist":true},{"stop_id":61,"stop_name":"Сквер металлургов","stop_name_short":"Сквер металлургов","stop_name_abbr":"Ск.Метал","stop_direction":"конечная остановка","stop_type":3,"stop_lat":56.875731692649,"stop_long":53.184540441302,"stop_final_name":"Сквера Металлургов","stop_demand":0,"stop_start_time":null,"stop_photo_exist":true},{"stop_id":62,"stop_name":"Сквер металлургов","stop_name_short":"Сквер металлургов","stop_name_abbr":"Ск.Метал","stop_direction":"в сторону улицы Тарасова","stop_type":2,"stop_lat":56.876245013257,"stop_long":53.183184614044,"stop_final_name":null,"stop_demand":0,"stop_start_time":null,"stop_photo_exist":true},{"stop_id":63,"stop_name":"Сквер металлургов","stop_name_short":"Сквер металлургов","stop_name_abbr":"Ск.Метал","stop_direction":"в сторону улицы 50 лет ВЛКСМ","stop_type":2,"stop_lat":56.876770058775,"stop_long":53.183719740458,"stop_final_name":"Сквера Металлургов","stop_demand":0,"stop_start_time":null,"stop_photo_exist":true},{"stop_id":64,"stop_name":"улица Фруктовая","stop_name_short":"ул. Фруктовая","stop_name_abbr":"Фруктов","stop_direction":"в сторону сквера Металлургов","stop_type":2,"stop_lat":56.878421675476,"stop_long":53.193739459306,"stop_final_name":null,"stop_demand":0,"stop_start_time":null,"stop_photo_exist":true},{"stop_id":65,"stop_name":"улица 6-я Подлесная","stop_name_short":"ул. 6-я Подлесная","stop_name_abbr":"6 Подлес","stop_direction":"в сторону улицы Кирова","stop_type":3,"stop_lat":56.869317511624,"stop_long":53.185135934504,"stop_final_name":null,"stop_demand":0,"stop_start_time":null,"stop_photo_exist":true},{"stop_id":66,"stop_name":"Библиотека имени Кедрова","stop_name_short":"Библиотека им. Кедрова","stop_name_abbr":"Кедрова","stop_direction":"в сторону улицы Крылова","stop_type":2,"stop_lat":56.853171222092,"stop_long":53.109428707136,"stop_final_name":null,"stop_demand":0,"stop_start_time":null,"stop_photo_exist":true},{"stop_id":67,"stop_name":"Библиотека имени Кедрова","stop_name_short":"Библиотека им. Кедрова","stop_name_abbr":"Кедрова","stop_direction":"в сторону поселка Вараксино","stop_type":2,"stop_lat":56.853735573666,"stop_long":53.109346510518,"stop_final_name":null,"stop_demand":0,"stop_start_time":null,"stop_photo_exist":true},{"stop_id":68,"stop_name":"Контора","stop_name_short":"Контора","stop_name_abbr":"Контора","stop_direction":"конечная остановка","stop_type":2,"stop_lat":56.829351259906,"stop_long":53.107210407373,"stop_final_name":"Конторы","stop_demand":0,"stop_start_time":null,"stop_photo_exist":true},{"stop_id":69,"stop_name":"Контора","stop_name_short":"Контора","stop_name_abbr":"Контора","stop_direction":"в сторону Чекерила","stop_type":2,"stop_lat":56.829155316034,"stop_long":53.106967856654,"stop_final_name":null,"stop_demand":0,"stop_start_time":null,"stop_photo_exist":true},{"stop_id":70,"stop_name":"Новые парники","stop_name_short":"Новые парники","stop_name_abbr":"Н Парник","stop_direction":"в сторону улицы Субботина","stop_type":2,"stop_lat":56.819724107672,"stop_long":53.079914468644,"stop_final_name":null,"stop_demand":0,"stop_start_time":null,"stop_photo_exist":false},{"stop_id":71,"stop_name":"Новые парники","stop_name_short":"Новые парники","stop_name_abbr":"Н Парник","stop_direction":"в сторону улицы Живописной","stop_type":2,"stop_lat":56.81964062955,"stop_long":53.08017749536,"stop_final_name":null,"stop_demand":0,"stop_start_time":null,"stop_photo_exist":false},{"stop_id":72,"stop_name":"поселок Радужный","stop_name_short":"пос. Радужный","stop_name_abbr":"Радужный","stop_direction":"в сторону Чекерила","stop_type":2,"stop_lat":56.821703025449,"stop_long":53.094038359732,"stop_final_name":null,"stop_demand":0,"stop_start_time":null,"stop_photo_exist":true},{"stop_id":73,"stop_name":"поселок Радужный","stop_name_short":"пос. Радужный","stop_name_abbr":"Радужный","stop_direction":"в сторону города Ижевска","stop_type":2,"stop_lat":56.821601972144,"stop_long":53.093802333105,"stop_final_name":null,"stop_demand":0,"stop_start_time":null,"stop_photo_exist":true},{"stop_id":75,"stop_name":"поселок Машиностроителей","stop_name_short":"пос. Машиностроителей","stop_name_abbr":"Машиност","stop_direction":"конечная остановка","stop_type":2,"stop_lat":56.831676927063,"stop_long":53.111611511491,"stop_final_name":"Машиностроителя","stop_demand":0,"stop_start_time":null,"stop_photo_exist":true},{"stop_id":76,"stop_name":"База строймеханизации","stop_name_short":"База строймеханизации","stop_name_abbr":"База СТМ","stop_direction":"конечная остановка","stop_type":2,"stop_lat":56.812023989297,"stop_long":53.139846664008,"stop_final_name":"Базы строймеханизации","stop_demand":0,"stop_start_time":null,"stop_photo_exist":true},{"stop_id":77,"stop_name":"Подстанция","stop_name_short":"Подстанция","stop_name_abbr":"Подстанц","stop_direction":"в сторону города Ижевска","stop_type":2,"stop_lat":56.803924079228,"stop_long":53.21352854807,"stop_final_name":null,"stop_demand":0,"stop_start_time":null,"stop_photo_exist":true},{"stop_id":78,"stop_name":"Подстанция","stop_name_short":"Подстанция","stop_name_abbr":"Подстанц","stop_direction":"в сторону города Сарапула","stop_type":2,"stop_lat":56.803762269094,"stop_long":53.213511360126,"stop_final_name":null,"stop_demand":0,"stop_start_time":null,"stop_photo_exist":true},{"stop_id":79,"stop_name":"Гаражи","stop_name_short":"Гаражи","stop_name_abbr":"Гаражи","stop_direction":"в сторону города Сарапула","stop_type":2,"stop_lat":56.799742682868,"stop_long":53.215347112952,"stop_final_name":null,"stop_demand":0,"stop_start_time":null,"stop_photo_exist":true},{"stop_id":80,"stop_name":"Гаражи","stop_name_short":"Гаражи","stop_name_abbr":"Гаражи","stop_direction":"в сторону города Ижевска","stop_type":2,"stop_lat":56.800134853816,"stop_long":53.215340542398,"stop_final_name":null,"stop_demand":0,"stop_start_time":null,"stop_photo_exist":true},{"stop_id":81,"stop_name":"Очистные сооружения","stop_name_short":"Очистные соор.","stop_name_abbr":"Очистные","stop_direction":"в сторону совхоза Металлург","stop_type":2,"stop_lat":56.798036691824,"stop_long":53.225530338455,"stop_final_name":null,"stop_demand":0,"stop_start_time":null,"stop_photo_exist":true},{"stop_id":82,"stop_name":"Очистные сооружения","stop_name_short":"Очистные соор.","stop_name_abbr":"Очистные","stop_direction":"в сторону Сарапульского тракта","stop_type":2,"stop_lat":56.798068258958,"stop_long":53.225434033161,"stop_final_name":null,"stop_demand":0,"stop_start_time":null,"stop_photo_exist":true},{"stop_id":83,"stop_name":"совхоз Металлург","stop_name_short":"с-з Металлург","stop_name_abbr":"сз Метал","stop_direction":"конечная остановка","stop_type":2,"stop_lat":56.794712544705,"stop_long":53.243290284975,"stop_final_name":"Металлурга","stop_demand":0,"stop_start_time":null,"stop_photo_exist":true},{"stop_id":84,"stop_name":"улица Аграрная","stop_name_short":"ул. Аграрная","stop_name_abbr":"Аграрная","stop_direction":"в сторону совхоза Металлург","stop_type":2,"stop_lat":56.80316115392,"stop_long":53.237477329384,"stop_final_name":null,"stop_demand":0,"stop_start_time":null,"stop_photo_exist":true},{"stop_id":85,"stop_name":"улица Аграрная","stop_name_short":"ул. Аграрная","stop_name_abbr":"Аграрная","stop_direction":"в сторону города Ижевска","stop_type":2,"stop_lat":56.80324836918,"stop_long":53.237209603774,"stop_final_name":null,"stop_demand":0,"stop_start_time":null,"stop_photo_exist":true},{"stop_id":86,"stop_name":"поворот на Медведево","stop_name_short":"пов. на Медведево","stop_name_abbr":"~Медвед","stop_direction":"в сторону поселка Медведево","stop_type":2,"stop_lat":56.790462935258,"stop_long":53.233561463037,"stop_final_name":null,"stop_demand":0,"stop_start_time":null,"stop_photo_exist":true},{"stop_id":87,"stop_name":"Очистные сооружения","stop_name_short":"Очистные соор.","stop_name_abbr":"Очистные","stop_direction":"в сторону города Сарапула","stop_type":2,"stop_lat":56.793058899137,"stop_long":53.230373265451,"stop_final_name":null,"stop_demand":0,"stop_start_time":null,"stop_photo_exist":true},{"stop_id":88,"stop_name":"Очистные сооружения","stop_name_short":"Очистные соор.","stop_name_abbr":"Очистные","stop_direction":"в сторону города Ижевска","stop_type":2,"stop_lat":56.793757423326,"stop_long":53.229694647887,"stop_final_name":null,"stop_demand":0,"stop_start_time":null,"stop_photo_exist":true},{"stop_id":89,"stop_name":"поворот на Медведево","stop_name_short":"пов. на Медведево","stop_name_abbr":"~Медвед","stop_direction":"в сторону города Ижевска","stop_type":2,"stop_lat":56.790379238657,"stop_long":53.233818140892,"stop_final_name":null,"stop_demand":0,"stop_start_time":null,"stop_photo_exist":true},{"stop_id":90,"stop_name":"Библиотека","stop_name_short":"Библиотека","stop_name_abbr":"Библиот","stop_direction":"в сторону совхоза Металлург","stop_type":2,"stop_lat":56.802122548575,"stop_long":53.241328736974,"stop_final_name":null,"stop_demand":0,"stop_start_time":null,"stop_photo_exist":true},{"stop_id":91,"stop_name":"Библиотека","stop_name_short":"Библиотека","stop_name_abbr":"Библиот","stop_direction":"в сторону Сарапульского тракта","stop_type":2,"stop_lat":56.802219056302,"stop_long":53.241341366363,"stop_final_name":null,"stop_demand":0,"stop_start_time":null,"stop_photo_exist":true},{"stop_id":92,"stop_name":"улица Изумрудная","stop_name_short":"ул. Изумрудная","stop_name_abbr":"Изумрудн","stop_direction":"в сторону поселка Медведево","stop_type":2,"stop_lat":56.781185155621,"stop_long":53.228588242438,"stop_final_name":null,"stop_demand":0,"stop_start_time":null,"stop_photo_exist":true},{"stop_id":93,"stop_name":"улица Изумрудная","stop_name_short":"ул. Изумрудная","stop_name_abbr":"Изумрудн","stop_direction":"в сторону Сарапульского тракта","stop_type":2,"stop_lat":56.78136406836,"stop_long":53.228817553561,"stop_final_name":null,"stop_demand":0,"stop_start_time":null,"stop_photo_exist":true},{"stop_id":94,"stop_name":"поселок Медведево","stop_name_short":"пос. Медведево","stop_name_abbr":"Медведев","stop_direction":"конечная остановка","stop_type":2,"stop_lat":56.777302863649,"stop_long":53.225653309518,"stop_final_name":"Медведево","stop_demand":0,"stop_start_time":null,"stop_photo_exist":true},{"stop_id":95,"stop_name":"садоводческое общество Рябинушка","stop_name_short":"с\/о Рябинушка","stop_name_abbr":"Рябинушк","stop_direction":"в сторону Якшур-Бодьинского тракта","stop_type":2,"stop_lat":56.959400425978,"stop_long":53.146350312457,"stop_final_name":null,"stop_demand":0,"stop_start_time":null,"stop_photo_exist":false},{"stop_id":96,"stop_name":"садоводческое общество Рябинушка","stop_name_short":"с\/о Рябинушка","stop_name_abbr":"Рябинушк","stop_direction":"в сторону города Ижевска","stop_type":2,"stop_lat":56.959079451161,"stop_long":53.147126879228,"stop_final_name":null,"stop_demand":0,"stop_start_time":null,"stop_photo_exist":false},{"stop_id":97,"stop_name":"Нагорный интернат","stop_name_short":"Нагорный интернат","stop_name_abbr":"Н интерн","stop_direction":"в сторону города Ижевска","stop_type":2,"stop_lat":56.954917295166,"stop_long":53.165051915636,"stop_final_name":null,"stop_demand":0,"stop_start_time":null,"stop_photo_exist":false},{"stop_id":98,"stop_name":"Нагорный интернат","stop_name_short":"Нагорный интернат","stop_name_abbr":"Н интерн","stop_direction":"в сторону поселка Игерман","stop_type":2,"stop_lat":56.954807417467,"stop_long":53.16516165585,"stop_final_name":null,"stop_demand":0,"stop_start_time":null,"stop_photo_exist":false},{"stop_id":99,"stop_name":"микрорайон Игерман","stop_name_short":"мкрн Игерман","stop_name_abbr":"Игерман","stop_direction":"начальная остановка","stop_type":2,"stop_lat":56.942936835395,"stop_long":53.150511615067,"stop_final_name":null,"stop_demand":0,"stop_start_time":null,"stop_photo_exist":true},{"stop_id":100,"stop_name":"магазин Новый Игерман","stop_name_short":"м-н Новый Игерман","stop_name_abbr":"Игерман","stop_direction":"в сторону поселка Игерман","stop_type":2,"stop_lat":56.944516562713,"stop_long":53.143952632115,"stop_final_name":null,"stop_demand":0,"stop_start_time":null,"stop_photo_exist":true},{"stop_id":101,"stop_name":"магазин Новый Игерман","stop_name_short":"м-н Новый Игерман","stop_name_abbr":"Игерман","stop_direction":"в сторону Як-Бодьинского тракта","stop_type":2,"stop_lat":56.944599792099,"stop_long":53.144172332078,"stop_final_name":null,"stop_demand":0,"stop_start_time":null,"stop_photo_exist":true},{"stop_id":102,"stop_name":"садоводческое общество Ручеек","stop_name_short":"с\/о Ручеек","stop_name_abbr":"Ручеек","stop_direction":"в сторону Якшур-Бодьинского тракта","stop_type":2,"stop_lat":56.952568271436,"stop_long":53.198799048001,"stop_final_name":null,"stop_demand":0,"stop_start_time":null,"stop_photo_exist":false},{"stop_id":103,"stop_name":"садоводческое общество Ручеек","stop_name_short":"с\/о Ручеек","stop_name_abbr":"Ручеек","stop_direction":"в сторону города Ижевска","stop_type":2,"stop_lat":56.952652569315,"stop_long":53.200248292528,"stop_final_name":null,"stop_demand":0,"stop_start_time":null,"stop_photo_exist":false},{"stop_id":104,"stop_name":"садоводческое общество Мебельщик","stop_name_short":"с\/о Мебельщик","stop_name_abbr":"Мебельщ","stop_direction":"в сторону Якшур-Бодьинского тракта","stop_type":2,"stop_lat":56.952843805674,"stop_long":53.182129089825,"stop_final_name":null,"stop_demand":0,"stop_start_time":null,"stop_photo_exist":false},{"stop_id":105,"stop_name":"садоводческое общество Мебельщик","stop_name_short":"с\/о Мебельщик","stop_name_abbr":"Мебельщ","stop_direction":"в сторону города Ижевска","stop_type":2,"stop_lat":56.952703859713,"stop_long":53.182332561997,"stop_final_name":null,"stop_demand":0,"stop_start_time":null,"stop_photo_exist":false},{"stop_id":106,"stop_name":"улица Чайковского","stop_name_short":"ул. Чайковского","stop_name_abbr":"Чайковск","stop_direction":"в сторону улицы Шевченко","stop_type":2,"stop_lat":56.848168348283,"stop_long":53.113033915865,"stop_final_name":null,"stop_demand":0,"stop_start_time":null,"stop_photo_exist":true},{"stop_id":107,"stop_name":"улица Шевченко","stop_name_short":"ул. Шевченко","stop_name_abbr":"Шевченко","stop_direction":"в сторону Заречного шоссе","stop_type":2,"stop_lat":56.841576488266,"stop_long":53.119420398546,"stop_final_name":null,"stop_demand":0,"stop_start_time":null,"stop_photo_exist":true},{"stop_id":108,"stop_name":"Производственная компания Ника","stop_name_short":"ПК Ника","stop_name_abbr":"Ника","stop_direction":"в сторону улицы Шевченко","stop_type":2,"stop_lat":56.840828430057,"stop_long":53.125864824101,"stop_final_name":null,"stop_demand":0,"stop_start_time":null,"stop_photo_exist":true},{"stop_id":109,"stop_name":"улица Шевченко","stop_name_short":"ул. Шевченко","stop_name_abbr":"Шевченко","stop_direction":"в сторону улицы Баранова","stop_type":2,"stop_lat":56.84122762868,"stop_long":53.118717931025,"stop_final_name":null,"stop_demand":0,"stop_start_time":null,"stop_photo_exist":true},{"stop_id":110,"stop_name":"улица Шевченко","stop_name_short":"ул. Шевченко","stop_name_abbr":"Шевченко","stop_direction":"в сторону Малиновой горы","stop_type":2,"stop_lat":56.84190852925,"stop_long":53.118556500691,"stop_final_name":null,"stop_demand":0,"stop_start_time":null,"stop_photo_exist":true},{"stop_id":111,"stop_name":"улица Шевченко","stop_name_short":"ул. Шевченко","stop_name_abbr":"Шевченко","stop_direction":"в сторону улицы Крылова","stop_type":2,"stop_lat":56.841608523544,"stop_long":53.119130422372,"stop_final_name":null,"stop_demand":0,"stop_start_time":null,"stop_photo_exist":false},{"stop_id":112,"stop_name":"улица Чайковского","stop_name_short":"ул. Чайковского","stop_name_abbr":"Чайковск","stop_direction":"в сторону Малиновой горы","stop_type":2,"stop_lat":56.846822887962,"stop_long":53.114294085269,"stop_final_name":null,"stop_demand":0,"stop_start_time":null,"stop_photo_exist":true},{"stop_id":113,"stop_name":"улица Селтинская","stop_name_short":"ул. Селтинская","stop_name_abbr":"Селтинск","stop_direction":"в сторону улицы Шевченко","stop_type":2,"stop_lat":56.838915400848,"stop_long":53.136076331724,"stop_final_name":null,"stop_demand":0,"stop_start_time":null,"stop_photo_exist":true},{"stop_id":114,"stop_name":"Ветеринарная лечебница","stop_name_short":"Ветлечебница","stop_name_abbr":"Вет леч","stop_direction":"в сторону улицы Олега Кошевого","stop_type":2,"stop_lat":56.833680233661,"stop_long":53.126087784416,"stop_final_name":null,"stop_demand":0,"stop_start_time":null,"stop_photo_exist":true},{"stop_id":115,"stop_name":"переулок Инвентарный","stop_name_short":"пер. Инвентарный","stop_name_abbr":"Инвентар","stop_direction":"в сторону улицы Шевченко","stop_type":2,"stop_lat":56.839049054271,"stop_long":53.140659626135,"stop_final_name":null,"stop_demand":0,"stop_start_time":null,"stop_photo_exist":true},{"stop_id":116,"stop_name":"переулок Инвентарный","stop_name_short":"пер. Инвентарный","stop_name_abbr":"Инвентар","stop_direction":"в сторону улицы Баранова","stop_type":2,"stop_lat":56.838877958149,"stop_long":53.141447987628,"stop_final_name":null,"stop_demand":0,"stop_start_time":null,"stop_photo_exist":true},{"stop_id":117,"stop_name":"улица Селтинская","stop_name_short":"ул. Селтинская","stop_name_abbr":"Селтинск","stop_direction":"в сторону улицы Баранова","stop_type":2,"stop_lat":56.838809755341,"stop_long":53.137568792737,"stop_final_name":null,"stop_demand":0,"stop_start_time":null,"stop_photo_exist":true},{"stop_id":118,"stop_name":"Колледж искусств","stop_name_short":"Колледж искусств","stop_name_abbr":"Колледж","stop_direction":"в сторону улицы Баранова","stop_type":2,"stop_lat":56.834061738506,"stop_long":53.141569529686,"stop_final_name":null,"stop_demand":0,"stop_start_time":null,"stop_photo_exist":true},{"stop_id":119,"stop_name":"улица Новая","stop_name_short":"ул. Новая","stop_name_abbr":"Новая","stop_direction":"в сторону поселка Машиностроителей","stop_type":2,"stop_lat":56.837124346756,"stop_long":53.113727856792,"stop_final_name":null,"stop_demand":0,"stop_start_time":null,"stop_photo_exist":true},{"stop_id":120,"stop_name":"улица Селтинская","stop_name_short":"ул. Селтинская","stop_name_abbr":"Селтинск","stop_direction":"в сторону Новошестнадцатой улицы","stop_type":2,"stop_lat":56.830049821319,"stop_long":53.139123327336,"stop_final_name":null,"stop_demand":0,"stop_start_time":null,"stop_photo_exist":true},{"stop_id":121,"stop_name":"магазин Родина","stop_name_short":"м-н Родина","stop_name_abbr":"Родина","stop_direction":"в сторону улицы Кузебая Герда","stop_type":2,"stop_lat":56.830410819068,"stop_long":53.143087682516,"stop_final_name":null,"stop_demand":0,"stop_start_time":null,"stop_photo_exist":true},{"stop_id":122,"stop_name":"улица Селтинская","stop_name_short":"ул. Селтинская","stop_name_abbr":"Селтинск","stop_direction":"в сторону улицы Кузебая Герда","stop_type":2,"stop_lat":56.830120251786,"stop_long":53.137353107237,"stop_final_name":null,"stop_demand":0,"stop_start_time":null,"stop_photo_exist":true},{"stop_id":123,"stop_name":"улица Кузебая Герда","stop_name_short":"ул. Кузебая Герда","stop_name_abbr":"К Герда","stop_direction":"начальная остановка","stop_type":2,"stop_lat":56.828097522554,"stop_long":53.13159571475,"stop_final_name":"Кузебая Герда","stop_demand":0,"stop_start_time":null,"stop_photo_exist":true},{"stop_id":124,"stop_name":"завод Керамблоков","stop_name_short":"з-д Керамблоков","stop_name_abbr":"Керамбл","stop_direction":"в сторону Новошестнадцатой улицы","stop_type":2,"stop_lat":56.829556755191,"stop_long":53.129397627081,"stop_final_name":null,"stop_demand":0,"stop_start_time":null,"stop_photo_exist":true},{"stop_id":125,"stop_name":"завод Керамблоков","stop_name_short":"з-д Керамблоков","stop_name_abbr":"Керамбл","stop_direction":"в сторону улицы Баранова","stop_type":2,"stop_lat":56.830525285837,"stop_long":53.127809764985,"stop_final_name":null,"stop_demand":0,"stop_start_time":null,"stop_photo_exist":true},{"stop_id":126,"stop_name":"Металлкомплект","stop_name_short":"Металлкомплект","stop_name_abbr":"Мет комп","stop_direction":"в сторону Южной набережной","stop_type":2,"stop_lat":56.833019925739,"stop_long":53.162512223399,"stop_final_name":null,"stop_demand":0,"stop_start_time":null,"stop_photo_exist":true},{"stop_id":127,"stop_name":"Металлкомплект","stop_name_short":"Металлкомплект","stop_name_abbr":"Мет комп","stop_direction":"в сторону улицы Новоажимова","stop_type":2,"stop_lat":56.832714684196,"stop_long":53.162276146143,"stop_final_name":null,"stop_demand":0,"stop_start_time":null,"stop_photo_exist":true},{"stop_id":148,"stop_name":"деревня Соловьи","stop_name_short":"дер. Соловьи","stop_name_abbr":"Соловьи","stop_direction":"в сторону поселка Игра","stop_type":2,"stop_lat":57.243824656888,"stop_long":53.157428273969,"stop_final_name":null,"stop_demand":0,"stop_start_time":null,"stop_photo_exist":false},{"stop_id":149,"stop_name":"деревня Соловьи","stop_name_short":"дер. Соловьи","stop_name_abbr":"Соловьи","stop_direction":"в сторону города Ижевска","stop_type":2,"stop_lat":57.242786253672,"stop_long":53.1557899183,"stop_final_name":null,"stop_demand":0,"stop_start_time":null,"stop_photo_exist":false},{"stop_id":150,"stop_name":"Якшур-1","stop_name_short":"Якшур-1","stop_name_abbr":"Якшур-1","stop_direction":"в сторону поселка Якшур-Бодья","stop_type":2,"stop_lat":57.213865669385,"stop_long":53.157754697296,"stop_final_name":null,"stop_demand":0,"stop_start_time":null,"stop_photo_exist":false},{"stop_id":151,"stop_name":"Якшур-1","stop_name_short":"Якшур-1","stop_name_abbr":"Якшур-1","stop_direction":"в сторону города Ижевска","stop_type":2,"stop_lat":57.213788325956,"stop_long":53.157512068951,"stop_final_name":null,"stop_demand":0,"stop_start_time":null,"stop_photo_exist":false},{"stop_id":152,"stop_name":"Автозаправочная станция","stop_name_short":"АЗС","stop_name_abbr":"АЗС","stop_direction":"в сторону поселка Завьялово","stop_type":2,"stop_lat":56.813092047797,"stop_long":53.369079223891,"stop_final_name":null,"stop_demand":1,"stop_start_time":null,"stop_photo_exist":false},{"stop_id":153,"stop_name":"Автозаправочная станция","stop_name_short":"АЗС","stop_name_abbr":"АЗС","stop_direction":"в сторону города Ижевска","stop_type":2,"stop_lat":56.813646380822,"stop_long":53.368440807767,"stop_final_name":null,"stop_demand":1,"stop_start_time":null,"stop_photo_exist":false},{"stop_id":154,"stop_name":"Нефтеразведка","stop_name_short":"Нефтеразведка","stop_name_abbr":"Нефтераз","stop_direction":"в сторону поселка Завьялово","stop_type":2,"stop_lat":56.804067948177,"stop_long":53.375025458384,"stop_final_name":null,"stop_demand":0,"stop_start_time":null,"stop_photo_exist":false},{"stop_id":155,"stop_name":"Нефтеразведка","stop_name_short":"Нефтеразведка","stop_name_abbr":"Нефтераз","stop_direction":"в сторону города Ижевска","stop_type":2,"stop_lat":56.804141744079,"stop_long":53.375242804821,"stop_final_name":null,"stop_demand":0,"stop_start_time":null,"stop_photo_exist":false},{"stop_id":156,"stop_name":"садоводческое общество Родник","stop_name_short":"с\/о Родник","stop_name_abbr":"Родник","stop_direction":"в сторону поселка Завьялово","stop_type":2,"stop_lat":56.820125124543,"stop_long":53.358871637588,"stop_final_name":null,"stop_demand":0,"stop_start_time":null,"stop_photo_exist":false},{"stop_id":157,"stop_name":"садоводческое общество Родник","stop_name_short":"с\/о Родник","stop_name_abbr":"Родник","stop_direction":"в сторону города Ижевска","stop_type":2,"stop_lat":56.820363905602,"stop_long":53.35896126827,"stop_final_name":null,"stop_demand":0,"stop_start_time":null,"stop_photo_exist":false},{"stop_id":158,"stop_name":"поворот на Смирново","stop_name_short":"пов. на Смирново","stop_name_abbr":"~Смирнов","stop_direction":"в сторону города Ижевска","stop_type":2,"stop_lat":56.91170396751,"stop_long":53.377460203656,"stop_final_name":null,"stop_demand":0,"stop_start_time":null,"stop_photo_exist":true},{"stop_id":159,"stop_name":"поворот на Смирново","stop_name_short":"пов. на Смирново","stop_name_abbr":"~Смирнов","stop_direction":"в сторону города Воткинска","stop_type":2,"stop_lat":56.911580885611,"stop_long":53.377499326874,"stop_final_name":null,"stop_demand":0,"stop_start_time":null,"stop_photo_exist":true},{"stop_id":164,"stop_name":"Пионерлагерь Елочка","stop_name_short":"п\/л Елочка","stop_name_abbr":"Елочка","stop_direction":"в сторону города Воткинска","stop_type":2,"stop_lat":56.934382320733,"stop_long":53.554456492495,"stop_final_name":null,"stop_demand":0,"stop_start_time":null,"stop_photo_exist":false},{"stop_id":165,"stop_name":"Пионерлагерь Елочка","stop_name_short":"п\/л Елочка","stop_name_abbr":"Елочка","stop_direction":"в сторону города Ижевска","stop_type":2,"stop_lat":56.934446102896,"stop_long":53.554406036669,"stop_final_name":null,"stop_demand":0,"stop_start_time":null,"stop_photo_exist":false},{"stop_id":167,"stop_name":"поворот на Гольяны","stop_name_short":"пов. на Гольяны","stop_name_abbr":"~Гольяны","stop_direction":"в сторону города Ижевска","stop_type":2,"stop_lat":56.925234811464,"stop_long":53.517223802238,"stop_final_name":null,"stop_demand":0,"stop_start_time":null,"stop_photo_exist":false},{"stop_id":168,"stop_name":"село Италмас","stop_name_short":"с. Италмас","stop_name_abbr":"Италмас","stop_direction":"в сторону города Воткинска","stop_type":2,"stop_lat":56.919746404769,"stop_long":53.477596485617,"stop_final_name":null,"stop_demand":0,"stop_start_time":null,"stop_photo_exist":false},{"stop_id":169,"stop_name":"село Италмас","stop_name_short":"с. Италмас","stop_name_abbr":"Италмас","stop_direction":"в сторону города Ижевска","stop_type":2,"stop_lat":56.919736537673,"stop_long":53.476508756536,"stop_final_name":null,"stop_demand":0,"stop_start_time":null,"stop_photo_exist":false},{"stop_id":170,"stop_name":"Железнодорожный переезд","stop_name_short":"Ж\/д переезд","stop_name_abbr":"Ж\/д пер","stop_direction":"в сторону города Воткинска","stop_type":2,"stop_lat":56.917832740841,"stop_long":53.463361452557,"stop_final_name":null,"stop_demand":0,"stop_start_time":null,"stop_photo_exist":false},{"stop_id":171,"stop_name":"Железнодорожный переезд","stop_name_short":"Ж\/д переезд","stop_name_abbr":"Ж\/д пер","stop_direction":"в сторону города Ижевска","stop_type":2,"stop_lat":56.917925345286,"stop_long":53.463337663063,"stop_final_name":null,"stop_demand":0,"stop_start_time":null,"stop_photo_exist":false},{"stop_id":184,"stop_name":"деревня Новая Вожойка","stop_name_short":"дер. Новая Вожойка","stop_name_abbr":"Н Вожойк","stop_direction":"в сторону поселка Якшур-Бодья","stop_type":2,"stop_lat":56.983435046535,"stop_long":53.139668900424,"stop_final_name":null,"stop_demand":0,"stop_start_time":null,"stop_photo_exist":false},{"stop_id":185,"stop_name":"деревня Старая Вожойка","stop_name_short":"дер. Старая Вожойка","stop_name_abbr":"Ст Вожой","stop_direction":"в сторону поселка Якшур-Бодья","stop_type":2,"stop_lat":56.99065852314,"stop_long":53.141660655487,"stop_final_name":null,"stop_demand":0,"stop_start_time":null,"stop_photo_exist":false},{"stop_id":186,"stop_name":"деревня Старая Вожойка","stop_name_short":"дер. Старая Вожойка","stop_name_abbr":"Ст Вожой","stop_direction":"в сторону города Ижевска","stop_type":2,"stop_lat":56.99068279556,"stop_long":53.141513080185,"stop_final_name":null,"stop_demand":0,"stop_start_time":null,"stop_photo_exist":false},{"stop_id":187,"stop_name":"деревня Новая Вожойка","stop_name_short":"дер. Новая Вожойка","stop_name_abbr":"Н Вожойк","stop_direction":"в сторону города Ижевска","stop_type":2,"stop_lat":56.983469118295,"stop_long":53.139435668067,"stop_final_name":null,"stop_demand":0,"stop_start_time":null,"stop_photo_exist":false},{"stop_id":188,"stop_name":"село Завьялово","stop_name_short":"с. Завьялово","stop_name_abbr":"Завьялов","stop_direction":"конечная остановка","stop_type":2,"stop_lat":56.785803880289,"stop_long":53.379737164481,"stop_final_name":"Завьялово","stop_demand":0,"stop_start_time":null,"stop_photo_exist":false},{"stop_id":189,"stop_name":"село Завьялово","stop_name_short":"с. Завьялово","stop_name_abbr":"Завьялов","stop_direction":"начальная остановка","stop_type":2,"stop_lat":56.785966684494,"stop_long":53.379931455254,"stop_final_name":null,"stop_demand":0,"stop_start_time":null,"stop_photo_exist":false},{"stop_id":190,"stop_name":"Больница","stop_name_short":"Больница","stop_name_abbr":"Больница","stop_direction":"в сторону поселка Завьялово","stop_type":2,"stop_lat":56.79992872204,"stop_long":53.376051216853,"stop_final_name":null,"stop_demand":0,"stop_start_time":null,"stop_photo_exist":false},{"stop_id":191,"stop_name":"Столовая","stop_name_short":"Столовая","stop_name_abbr":"Столовая","stop_direction":"в сторону поселка Завьялово","stop_type":2,"stop_lat":56.795333149919,"stop_long":53.380478597285,"stop_final_name":null,"stop_demand":0,"stop_start_time":null,"stop_photo_exist":false},{"stop_id":192,"stop_name":"Столовая","stop_name_short":"Столовая","stop_name_abbr":"Столовая","stop_direction":"в сторону города Ижевска","stop_type":2,"stop_lat":56.79481215353,"stop_long":53.380899885886,"stop_final_name":null,"stop_demand":0,"stop_start_time":null,"stop_photo_exist":false},{"stop_id":193,"stop_name":"Больница","stop_name_short":"Больница","stop_name_abbr":"Больница","stop_direction":"в сторону города Ижевска","stop_type":2,"stop_lat":56.800415819087,"stop_long":53.376086805585,"stop_final_name":null,"stop_demand":0,"stop_start_time":null,"stop_photo_exist":false},{"stop_id":196,"stop_name":"деревня Докша","stop_name_short":"дер. Докша","stop_name_abbr":"Докша","stop_direction":"в сторону села Перевозное","stop_type":2,"stop_lat":56.807990055257,"stop_long":53.746926563735,"stop_final_name":null,"stop_demand":0,"stop_start_time":null,"stop_photo_exist":false},{"stop_id":197,"stop_name":"деревня Докша","stop_name_short":"дер. Докша","stop_name_abbr":"Докша","stop_direction":"в сторону города Ижевска","stop_type":2,"stop_lat":56.808003375182,"stop_long":53.746736820349,"stop_final_name":null,"stop_demand":0,"stop_start_time":null,"stop_photo_exist":false},{"stop_id":200,"stop_name":"деревня Сидоровы Горы","stop_name_short":"дер. Сидоровы Горы","stop_name_abbr":"Сид Горы","stop_direction":"в сторону села Перевозное","stop_type":2,"stop_lat":56.848126919879,"stop_long":53.788328944788,"stop_final_name":null,"stop_demand":0,"stop_start_time":null,"stop_photo_exist":false},{"stop_id":201,"stop_name":"деревня Сидоровы Горы","stop_name_short":"дер. Сидоровы Горы","stop_name_abbr":"Сид Горы","stop_direction":"в сторону поселка Гольяны","stop_type":2,"stop_lat":56.84830026277,"stop_long":53.7881246802,"stop_final_name":null,"stop_demand":0,"stop_start_time":null,"stop_photo_exist":false},{"stop_id":202,"stop_name":"деревня Поваренки","stop_name_short":"дер. Поваренки","stop_name_abbr":"Поваренк","stop_direction":"в сторону деревни Ольхово","stop_type":2,"stop_lat":56.829005352347,"stop_long":53.776531316192,"stop_final_name":null,"stop_demand":0,"stop_start_time":null,"stop_photo_exist":false},{"stop_id":203,"stop_name":"деревня Поваренки","stop_name_short":"дер. Поваренки","stop_name_abbr":"Поваренк","stop_direction":"в сторону поселка Гольяны","stop_type":2,"stop_lat":56.829125443147,"stop_long":53.776391940029,"stop_final_name":null,"stop_demand":0,"stop_start_time":null,"stop_photo_exist":false},{"stop_id":232,"stop_name":"садоводческое общество Италмас","stop_name_short":"с\/о Италмас","stop_name_abbr":"Италмас","stop_direction":"в сторону Загороднего","stop_type":2,"stop_lat":56.964031623905,"stop_long":53.128372236493,"stop_final_name":null,"stop_demand":0,"stop_start_time":null,"stop_photo_exist":false},{"stop_id":233,"stop_name":"садоводческое общество Италмас","stop_name_short":"с\/о Италмас","stop_name_abbr":"Италмас","stop_direction":"в сторону города Ижевска","stop_type":2,"stop_lat":56.964135226962,"stop_long":53.127767458273,"stop_final_name":null,"stop_demand":0,"stop_start_time":null,"stop_photo_exist":false},{"stop_id":234,"stop_name":"садоводческое общество Радуга","stop_name_short":"с\/о Радуга","stop_name_abbr":"Радуга","stop_direction":"в сторону поселка Якшур-Бодья","stop_type":2,"stop_lat":56.972125171451,"stop_long":53.136292385427,"stop_final_name":null,"stop_demand":0,"stop_start_time":null,"stop_photo_exist":false},{"stop_id":235,"stop_name":"садоводческое общество Радуга","stop_name_short":"с\/о Радуга","stop_name_abbr":"Радуга","stop_direction":"в сторону города Ижевска","stop_type":2,"stop_lat":56.972133314826,"stop_long":53.13614290304,"stop_final_name":null,"stop_demand":0,"stop_start_time":null,"stop_photo_exist":false},{"stop_id":236,"stop_name":"садоводческое общество Загородный","stop_name_short":"с\/о Загородный","stop_name_abbr":"Загородн","stop_direction":"конечная остановка","stop_type":2,"stop_lat":56.967168601398,"stop_long":53.116310247377,"stop_final_name":"Загороднего","stop_demand":0,"stop_start_time":null,"stop_photo_exist":false},{"stop_id":237,"stop_name":"садоводческое общество Загородный","stop_name_short":"с\/о Загородный","stop_name_abbr":"Загородн","stop_direction":"в сторону города Ижевска","stop_type":2,"stop_lat":56.967291068864,"stop_long":53.116093344189,"stop_final_name":null,"stop_demand":0,"stop_start_time":null,"stop_photo_exist":false},{"stop_id":238,"stop_name":"садоводческое общество Строитель","stop_name_short":"с\/о Строитель","stop_name_abbr":"Строител","stop_direction":"в сторону города Ижевска","stop_type":2,"stop_lat":56.961149792725,"stop_long":53.139368179588,"stop_final_name":null,"stop_demand":0,"stop_start_time":null,"stop_photo_exist":false},{"stop_id":239,"stop_name":"садоводческое общество Строитель","stop_name_short":"с\/о Строитель","stop_name_abbr":"Строител","stop_direction":"в сторону Якшур-Бодьинского тракта","stop_type":2,"stop_lat":56.961292431753,"stop_long":53.139139025881,"stop_final_name":null,"stop_demand":0,"stop_start_time":null,"stop_photo_exist":false},{"stop_id":240,"stop_name":"16-й км Як-Бодьинского тракта","stop_name_short":"16-й км","stop_name_abbr":"16-й км","stop_direction":"в сторону поселка Якшур-Бодья","stop_type":2,"stop_lat":56.963352128539,"stop_long":53.133722942286,"stop_final_name":"16-го км","stop_demand":0,"stop_start_time":null,"stop_photo_exist":false},{"stop_id":241,"stop_name":"16-й км Як-Бодьинского тракта","stop_name_short":"16-й км","stop_name_abbr":"16-й км","stop_direction":"в сторону города Ижевска","stop_type":2,"stop_lat":56.962886819775,"stop_long":53.133437586388,"stop_final_name":null,"stop_demand":0,"stop_start_time":null,"stop_photo_exist":false},{"stop_id":242,"stop_name":"Аэропорт","stop_name_short":"Аэропорт","stop_name_abbr":"Аэропорт","stop_direction":"конечная остановка","stop_type":2,"stop_lat":56.830772946721,"stop_long":53.450070860604,"stop_final_name":"Аэропорта","stop_demand":0,"stop_start_time":null,"stop_photo_exist":false},{"stop_id":243,"stop_name":"Аэропорт","stop_name_short":"Аэропорт","stop_name_abbr":"Аэропорт","stop_direction":"начальная остановка","stop_type":2,"stop_lat":56.831145009972,"stop_long":53.450384270853,"stop_final_name":null,"stop_demand":0,"stop_start_time":null,"stop_photo_exist":false},{"stop_id":244,"stop_name":"Мартьяны-2","stop_name_short":"Мартьяны-2","stop_name_abbr":"Мартья-2","stop_direction":"в сторону Аэропорта","stop_type":2,"stop_lat":56.83410998698,"stop_long":53.420556381204,"stop_final_name":null,"stop_demand":0,"stop_start_time":null,"stop_photo_exist":false},{"stop_id":245,"stop_name":"Крылатское","stop_name_short":"Крылатское","stop_name_abbr":"Крылатск","stop_direction":"в сторону Аэропорта","stop_type":2,"stop_lat":56.833618071378,"stop_long":53.428635040801,"stop_final_name":null,"stop_demand":0,"stop_start_time":null,"stop_photo_exist":false},{"stop_id":246,"stop_name":"Крылатское-2","stop_name_short":"Крылатское-2","stop_name_abbr":"Крылат-2","stop_direction":"в сторону Аэропорта","stop_type":2,"stop_lat":56.833215470551,"stop_long":53.435223587375,"stop_final_name":null,"stop_demand":0,"stop_start_time":null,"stop_photo_exist":false},{"stop_id":247,"stop_name":"Крылатское-2","stop_name_short":"Крылатское-2","stop_name_abbr":"Крылат-2","stop_direction":"в сторону города Ижевска","stop_type":2,"stop_lat":56.833312297803,"stop_long":53.435233322703,"stop_final_name":null,"stop_demand":0,"stop_start_time":null,"stop_photo_exist":false},{"stop_id":248,"stop_name":"Крылатское","stop_name_short":"Крылатское","stop_name_abbr":"Крылатск","stop_direction":"в сторону города Ижевска","stop_type":2,"stop_lat":56.833823907679,"stop_long":53.427755459476,"stop_final_name":null,"stop_demand":0,"stop_start_time":null,"stop_photo_exist":false},{"stop_id":249,"stop_name":"Мартьяны-2","stop_name_short":"Мартьяны-2","stop_name_abbr":"Мартья-2","stop_direction":"в сторону города Ижевска","stop_type":2,"stop_lat":56.834246948807,"stop_long":53.420503706021,"stop_final_name":null,"stop_demand":0,"stop_start_time":null,"stop_photo_exist":false},{"stop_id":250,"stop_name":"Мартьяны","stop_name_short":"Мартьяны","stop_name_abbr":"Мартьяны","stop_direction":"в сторону Аэропорта","stop_type":2,"stop_lat":56.832624615636,"stop_long":53.412389602973,"stop_final_name":null,"stop_demand":0,"stop_start_time":null,"stop_photo_exist":false},{"stop_id":251,"stop_name":"Мартьяны","stop_name_short":"Мартьяны","stop_name_abbr":"Мартьяны","stop_direction":"в сторону города Ижевска","stop_type":2,"stop_lat":56.832704075579,"stop_long":53.412328813152,"stop_final_name":null,"stop_demand":0,"stop_start_time":null,"stop_photo_exist":false},{"stop_id":252,"stop_name":"поворот на Чернушку","stop_name_short":"пов. на Чернушку","stop_name_abbr":"~Чернушк","stop_direction":"в сторону поселка Якшур-Бодья","stop_type":2,"stop_lat":56.998352946286,"stop_long":53.147198824601,"stop_final_name":null,"stop_demand":0,"stop_start_time":null,"stop_photo_exist":false},{"stop_id":253,"stop_name":"поворот на Чернушку","stop_name_short":"пов. на Чернушку","stop_name_abbr":"~Чернушк","stop_direction":"в сторону города Ижевска","stop_type":2,"stop_lat":56.998307314495,"stop_long":53.146956695816,"stop_final_name":null,"stop_demand":0,"stop_start_time":null,"stop_photo_exist":false},{"stop_id":254,"stop_name":"село Заря","stop_name_short":"с. Заря","stop_name_abbr":"Заря","stop_direction":"в сторону города Ижевска","stop_type":2,"stop_lat":57.00699899682,"stop_long":53.050526824938,"stop_final_name":null,"stop_demand":0,"stop_start_time":null,"stop_photo_exist":false},{"stop_id":255,"stop_name":"село Заря","stop_name_short":"с. Заря","stop_name_abbr":"Заря","stop_direction":"в сторону села Люкшудья","stop_type":2,"stop_lat":57.006824583826,"stop_long":53.050304514067,"stop_final_name":null,"stop_demand":0,"stop_start_time":null,"stop_photo_exist":false},{"stop_id":256,"stop_name":"поворот на с\/о Северный","stop_name_short":"пов. на с\/о Северный","stop_name_abbr":"~Северн","stop_direction":"в сторону села Люкшудья","stop_type":2,"stop_lat":56.999413780497,"stop_long":53.113128655707,"stop_final_name":null,"stop_demand":0,"stop_start_time":null,"stop_photo_exist":false},{"stop_id":257,"stop_name":"поворот на с\/о Северный","stop_name_short":"пов. на с\/о Северный","stop_name_abbr":"~Северн","stop_direction":"в сторону города Ижевска","stop_type":2,"stop_lat":56.999408115256,"stop_long":53.112593432413,"stop_final_name":null,"stop_demand":0,"stop_start_time":null,"stop_photo_exist":false},{"stop_id":258,"stop_name":"поворот на Новую Чернушку","stop_name_short":"пов. на Новую Чернушку","stop_name_abbr":"~Чернушк","stop_direction":"в сторону села Люкшудья","stop_type":2,"stop_lat":57.005936248895,"stop_long":53.075075472159,"stop_final_name":null,"stop_demand":0,"stop_start_time":null,"stop_photo_exist":false},{"stop_id":259,"stop_name":"поворот на Новую Чернушку","stop_name_short":"пов. на Новую Чернушку","stop_name_abbr":"~Чернушк","stop_direction":"в сторону города Ижевска","stop_type":2,"stop_lat":57.005888273073,"stop_long":53.075078463184,"stop_final_name":null,"stop_demand":0,"stop_start_time":null,"stop_photo_exist":false},{"stop_id":262,"stop_name":"Автосервис","stop_name_short":"Автосервис","stop_name_abbr":"А\/сервис","stop_direction":"в сторону Копрового проезда","stop_type":2,"stop_lat":56.902656367724,"stop_long":53.326934715393,"stop_final_name":null,"stop_demand":0,"stop_start_time":null,"stop_photo_exist":true},{"stop_id":263,"stop_name":"Автосервис","stop_name_short":"Автосервис","stop_name_abbr":"А\/сервис","stop_direction":"в сторону поселка Смирново","stop_type":2,"stop_lat":56.902903383335,"stop_long":53.329065332064,"stop_final_name":null,"stop_demand":0,"stop_start_time":null,"stop_photo_exist":true},{"stop_id":264,"stop_name":"завод Пластмасс","stop_name_short":"з-д Пластмасс","stop_name_abbr":"зд Пласт","stop_direction":"в сторону поселка Старки","stop_type":2,"stop_lat":56.889897563166,"stop_long":53.308589299687,"stop_final_name":null,"stop_demand":0,"stop_start_time":null,"stop_photo_exist":true},{"stop_id":265,"stop_name":"завод Пластмасс","stop_name_short":"з-д Пластмасс","stop_name_abbr":"зд Пласт","stop_direction":"в сторону Воткинского шоссе","stop_type":2,"stop_lat":56.890387104316,"stop_long":53.308290828294,"stop_final_name":"Завода Пластмасс","stop_demand":0,"stop_start_time":null,"stop_photo_exist":true},{"stop_id":266,"stop_name":"деревня Русский Вожой","stop_name_short":"дер. Русский Вожой","stop_name_abbr":"Р Вожой","stop_direction":"в сторону поселка Сокол","stop_type":2,"stop_lat":56.963313519815,"stop_long":53.366761886601,"stop_final_name":"Русского Вожоя","stop_demand":0,"stop_start_time":null,"stop_photo_exist":false},{"stop_id":267,"stop_name":"деревня Сокол","stop_name_short":"дер. Сокол","stop_name_abbr":"Сокол","stop_direction":"конечная остановка","stop_type":2,"stop_lat":57.044466826585,"stop_long":53.370386962319,"stop_final_name":"Сокола","stop_demand":0,"stop_start_time":null,"stop_photo_exist":false},{"stop_id":268,"stop_name":"деревня Сокол","stop_name_short":"дер. Сокол","stop_name_abbr":"Сокол","stop_direction":"начальная остановка","stop_type":2,"stop_lat":57.044565144925,"stop_long":53.370595363588,"stop_final_name":null,"stop_demand":0,"stop_start_time":null,"stop_photo_exist":false},{"stop_id":269,"stop_name":"Пасека","stop_name_short":"Пасека","stop_name_abbr":"Пасека","stop_direction":"в сторону поселка Сокол","stop_type":2,"stop_lat":57.01595147496,"stop_long":53.362789684411,"stop_final_name":null,"stop_demand":0,"stop_start_time":null,"stop_photo_exist":false},{"stop_id":270,"stop_name":"Пасека","stop_name_short":"Пасека","stop_name_abbr":"Пасека","stop_direction":"в сторону города Ижевска","stop_type":2,"stop_lat":57.015933388187,"stop_long":53.362593353872,"stop_final_name":null,"stop_demand":0,"stop_start_time":null,"stop_photo_exist":false},{"stop_id":271,"stop_name":"поворот на воинскую часть","stop_name_short":"пов. на в\/часть","stop_name_abbr":"~В\/часть","stop_direction":"в сторону поселка Сокол","stop_type":2,"stop_lat":56.983041146612,"stop_long":53.351595861553,"stop_final_name":null,"stop_demand":0,"stop_start_time":null,"stop_photo_exist":false},{"stop_id":272,"stop_name":"поворот на воинскую часть","stop_name_short":"пов. на в\/часть","stop_name_abbr":"~В\/часть","stop_direction":"в сторону города Ижевска","stop_type":2,"stop_lat":56.983009330317,"stop_long":53.351490731168,"stop_final_name":null,"stop_demand":0,"stop_start_time":null,"stop_photo_exist":false},{"stop_id":273,"stop_name":"поворот на Солнечный","stop_name_short":"пов. на Солнечный","stop_name_abbr":"~Солнечн","stop_direction":"в сторону деревни Русский Вожой","stop_type":2,"stop_lat":56.956720996464,"stop_long":53.35921147026,"stop_final_name":null,"stop_demand":0,"stop_start_time":null,"stop_photo_exist":false},{"stop_id":274,"stop_name":"Дубровка","stop_name_short":"Дубровка","stop_name_abbr":"Дубровка","stop_direction":"в сторону поселка Сокол","stop_type":2,"stop_lat":56.958702620153,"stop_long":53.366435560093,"stop_final_name":null,"stop_demand":0,"stop_start_time":null,"stop_photo_exist":false},{"stop_id":275,"stop_name":"деревня Русский Вожой","stop_name_short":"дер. Русский Вожой","stop_name_abbr":"Р Вожой","stop_direction":"в сторону улицы 9 Января","stop_type":2,"stop_lat":56.963274715065,"stop_long":53.366621798297,"stop_final_name":null,"stop_demand":0,"stop_start_time":null,"stop_photo_exist":false},{"stop_id":276,"stop_name":"Дубровка","stop_name_short":"Дубровка","stop_name_abbr":"Дубровка","stop_direction":"в сторону улицы 9 Января","stop_type":2,"stop_lat":56.958318530196,"stop_long":53.365585440626,"stop_final_name":null,"stop_demand":0,"stop_start_time":null,"stop_photo_exist":false},{"stop_id":277,"stop_name":"поворот на Солнечный","stop_name_short":"пов. на Солнечный","stop_name_abbr":"~Солнечн","stop_direction":"в сторону города Ижевска","stop_type":2,"stop_lat":56.956700207335,"stop_long":53.358693650074,"stop_final_name":null,"stop_demand":0,"stop_start_time":null,"stop_photo_exist":false},{"stop_id":278,"stop_name":"село Ягул","stop_name_short":"с. Ягул","stop_name_abbr":"Ягул","stop_direction":"конечная остановка","stop_type":2,"stop_lat":56.945060232978,"stop_long":53.309257278414,"stop_final_name":"Ягула","stop_demand":0,"stop_start_time":null,"stop_photo_exist":false},{"stop_id":279,"stop_name":"село Ягул","stop_name_short":"с. Ягул","stop_name_abbr":"Ягул","stop_direction":"начальная остановка","stop_type":2,"stop_lat":56.945215949006,"stop_long":53.308960062489,"stop_final_name":null,"stop_demand":0,"stop_start_time":null,"stop_photo_exist":false},{"stop_id":280,"stop_name":"ИТК","stop_name_short":"ИТК","stop_name_abbr":"ИТК","stop_direction":"в сторону села Ягул","stop_type":2,"stop_lat":56.940995571586,"stop_long":53.30043227144,"stop_final_name":null,"stop_demand":0,"stop_start_time":null,"stop_photo_exist":false},{"stop_id":281,"stop_name":"ИТК","stop_name_short":"ИТК","stop_name_abbr":"ИТК","stop_direction":"в сторону города Ижевска","stop_type":2,"stop_lat":56.941051176778,"stop_long":53.300238078805,"stop_final_name":null,"stop_demand":0,"stop_start_time":null,"stop_photo_exist":false},{"stop_id":282,"stop_name":"садовое товарищество Мир","stop_name_short":"c\/т Мир","stop_name_abbr":"Мир","stop_direction":"в сторону города Ижевска","stop_type":2,"stop_lat":56.921366634279,"stop_long":53.317853811526,"stop_final_name":null,"stop_demand":0,"stop_start_time":null,"stop_photo_exist":false},{"stop_id":283,"stop_name":"садовое товарищество Мир","stop_name_short":"c\/т Мир","stop_name_abbr":"Мир","stop_direction":"в сторону деревни Пазелы","stop_type":2,"stop_lat":56.921421694348,"stop_long":53.317941509529,"stop_final_name":null,"stop_demand":0,"stop_start_time":null,"stop_photo_exist":false},{"stop_id":284,"stop_name":"поворот на Докшу","stop_name_short":"пов. на Докшу","stop_name_abbr":"~Докша","stop_direction":"в сторону поселка Гольяны","stop_type":2,"stop_lat":56.777909137661,"stop_long":53.729535877221,"stop_final_name":null,"stop_demand":0,"stop_start_time":null,"stop_photo_exist":false},{"stop_id":285,"stop_name":"поворот на Докшу","stop_name_short":"пов. на Докшу","stop_name_abbr":"~Докша","stop_direction":"в сторону города Ижевска","stop_type":2,"stop_lat":56.778000243008,"stop_long":53.729652089926,"stop_final_name":null,"stop_demand":0,"stop_start_time":null,"stop_photo_exist":false},{"stop_id":286,"stop_name":"пост ГИБДД","stop_name_short":"пост ГИБДД","stop_name_abbr":"постГИБД","stop_direction":"в сторону города Воткинска","stop_type":2,"stop_lat":56.914182023491,"stop_long":53.39693429144,"stop_final_name":null,"stop_demand":0,"stop_start_time":null,"stop_photo_exist":false},{"stop_id":287,"stop_name":"пост ГИБДД","stop_name_short":"пост ГИБДД","stop_name_abbr":"постГИБД","stop_direction":"в сторону города Ижевска","stop_type":2,"stop_lat":56.914277603181,"stop_long":53.397012811961,"stop_final_name":null,"stop_demand":0,"stop_start_time":null,"stop_photo_exist":false},{"stop_id":288,"stop_name":"поворот на Якшур","stop_name_short":"пов. на Якшур","stop_name_abbr":"~Якшур","stop_direction":"в сторону города Воткинска","stop_type":2,"stop_lat":56.916249328996,"stop_long":53.440286359537,"stop_final_name":null,"stop_demand":0,"stop_start_time":null,"stop_photo_exist":false},{"stop_id":289,"stop_name":"Коттеджи","stop_name_short":"Коттеджи","stop_name_abbr":"Коттеджи","stop_direction":"в сторону деревни Якшур","stop_type":2,"stop_lat":56.912070969527,"stop_long":53.436490947251,"stop_final_name":null,"stop_demand":0,"stop_start_time":null,"stop_photo_exist":false},{"stop_id":290,"stop_name":"деревня Семеново","stop_name_short":"дер. Семеново","stop_name_abbr":"Семеново","stop_direction":"в сторону деревни Якшур","stop_type":2,"stop_lat":56.904652154316,"stop_long":53.432079569411,"stop_final_name":null,"stop_demand":0,"stop_start_time":null,"stop_photo_exist":false},{"stop_id":291,"stop_name":"ЛЭП","stop_name_short":"ЛЭП","stop_name_abbr":"ЛЭП","stop_direction":"в сторону деревни Якшур","stop_type":2,"stop_lat":56.899292704684,"stop_long":53.429478678755,"stop_final_name":null,"stop_demand":0,"stop_start_time":null,"stop_photo_exist":false},{"stop_id":292,"stop_name":"ЛЭП","stop_name_short":"ЛЭП","stop_name_abbr":"ЛЭП","stop_direction":"в сторону города Ижевска","stop_type":2,"stop_lat":56.899280957142,"stop_long":53.429647124329,"stop_final_name":null,"stop_demand":0,"stop_start_time":null,"stop_photo_exist":false},{"stop_id":293,"stop_name":"деревня Семеново","stop_name_short":"дер. Семеново","stop_name_abbr":"Семеново","stop_direction":"в сторону города Ижевска","stop_type":2,"stop_lat":56.90467305095,"stop_long":53.432248014985,"stop_final_name":null,"stop_demand":0,"stop_start_time":null,"stop_photo_exist":false},{"stop_id":294,"stop_name":"Коттеджи","stop_name_short":"Коттеджи","stop_name_abbr":"Коттеджи","stop_direction":"в сторону города Ижевска","stop_type":2,"stop_lat":56.912042788093,"stop_long":53.43662218101,"stop_final_name":null,"stop_demand":0,"stop_start_time":null,"stop_photo_exist":false},{"stop_id":295,"stop_name":"Военный городок","stop_name_short":"Военный городок","stop_name_abbr":"В\/город","stop_direction":"в сторону поселка Сокол","stop_type":2,"stop_lat":56.990838210098,"stop_long":53.325491624269,"stop_final_name":null,"stop_demand":0,"stop_start_time":null,"stop_photo_exist":false},{"stop_id":296,"stop_name":"Военный городок","stop_name_short":"Военный городок","stop_name_abbr":"В\/город","stop_direction":"в сторону города Ижевска","stop_type":2,"stop_lat":56.990721639545,"stop_long":53.325198040185,"stop_final_name":null,"stop_demand":0,"stop_start_time":null,"stop_photo_exist":false},{"stop_id":297,"stop_name":"деревня Забегалово","stop_name_short":"дер. Забегалово","stop_name_abbr":"Забегал","stop_direction":"в сторону поселка Гольяны","stop_type":2,"stop_lat":56.785879760521,"stop_long":53.666908545721,"stop_final_name":null,"stop_demand":0,"stop_start_time":null,"stop_photo_exist":false},{"stop_id":298,"stop_name":"деревня Забегалово","stop_name_short":"дер. Забегалово","stop_name_abbr":"Забегал","stop_direction":"в сторону города Ижевска","stop_type":2,"stop_lat":56.786050298368,"stop_long":53.667261569719,"stop_final_name":null,"stop_demand":0,"stop_start_time":null,"stop_photo_exist":false},{"stop_id":299,"stop_name":"Детский лагерь Лесная сказка","stop_name_short":"лагерь Лесная сказка","stop_name_abbr":"Лес сказ","stop_direction":"в сторону поселка Гольяны","stop_type":2,"stop_lat":56.800333855484,"stop_long":53.600079067564,"stop_final_name":null,"stop_demand":0,"stop_start_time":null,"stop_photo_exist":false},{"stop_id":300,"stop_name":"Детский лагерь Лесная сказка","stop_name_short":"лагерь Лесная сказка","stop_name_abbr":"Лес сказ","stop_direction":"в сторону города Ижевска","stop_type":2,"stop_lat":56.80040370744,"stop_long":53.600332288236,"stop_final_name":null,"stop_demand":0,"stop_start_time":null,"stop_photo_exist":false},{"stop_id":301,"stop_name":"Петухова гора","stop_name_short":"Петухова гора","stop_name_abbr":"Пет Гора","stop_direction":"в сторону поселка Гольяны","stop_type":2,"stop_lat":56.807714452211,"stop_long":53.584547200772,"stop_final_name":null,"stop_demand":0,"stop_start_time":null,"stop_photo_exist":false},{"stop_id":302,"stop_name":"Петухова гора","stop_name_short":"Петухова гора","stop_name_abbr":"Пет Гора","stop_direction":"в сторону города Ижевска","stop_type":2,"stop_lat":56.807785232938,"stop_long":53.584515354515,"stop_final_name":null,"stop_demand":0,"stop_start_time":null,"stop_photo_exist":false},{"stop_id":303,"stop_name":"поворот на Казмаску","stop_name_short":"пов. на Казмаску","stop_name_abbr":"~Казмаск","stop_direction":"в сторону поселка Гольяны","stop_type":2,"stop_lat":56.816039285524,"stop_long":53.530071639407,"stop_final_name":null,"stop_demand":0,"stop_start_time":null,"stop_photo_exist":false},{"stop_id":304,"stop_name":"поворот на Казмаску","stop_name_short":"пов. на Казмаску","stop_name_abbr":"~Казмаск","stop_direction":"в сторону города Ижевска","stop_type":2,"stop_lat":56.815989388992,"stop_long":53.529396686133,"stop_final_name":null,"stop_demand":0,"stop_start_time":null,"stop_photo_exist":false},{"stop_id":305,"stop_name":"село Гольяны","stop_name_short":"с. Гольяны","stop_name_abbr":"Гольяны","stop_direction":"в сторону города Ижевска","stop_type":2,"stop_lat":56.761031040768,"stop_long":53.7387978275,"stop_final_name":"Гольян","stop_demand":0,"stop_start_time":null,"stop_photo_exist":false},{"stop_id":306,"stop_name":"село Гольяны","stop_name_short":"с. Гольяны","stop_name_abbr":"Гольяны","stop_direction":"в сторону Гольянского тракта","stop_type":2,"stop_lat":56.76094419868,"stop_long":53.73863090339,"stop_final_name":null,"stop_demand":0,"stop_start_time":null,"stop_photo_exist":false},{"stop_id":312,"stop_name":"поворот на Опытную станцию","stop_name_short":"пов. на Опытную станцию","stop_name_abbr":"~о Станц","stop_direction":"в сторону поселка Завьялово","stop_type":2,"stop_lat":56.840052495484,"stop_long":53.338335266362,"stop_final_name":null,"stop_demand":0,"stop_start_time":null,"stop_photo_exist":false},{"stop_id":313,"stop_name":"деревня Кабаниха","stop_name_short":"дер. Кабаниха","stop_name_abbr":"Кабаниха","stop_direction":"в сторону поселка Завьялово","stop_type":2,"stop_lat":56.834085124805,"stop_long":53.344072626196,"stop_final_name":null,"stop_demand":0,"stop_start_time":null,"stop_photo_exist":false},{"stop_id":314,"stop_name":"деревня Кабаниха","stop_name_short":"дер. Кабаниха","stop_name_abbr":"Кабаниха","stop_direction":"в сторону города Ижевска","stop_type":2,"stop_lat":56.834082838568,"stop_long":53.34430892534,"stop_final_name":null,"stop_demand":0,"stop_start_time":null,"stop_photo_exist":false},{"stop_id":315,"stop_name":"поворот на Опытную станцию","stop_name_short":"пов. на Опытную станцию","stop_name_abbr":"~о Станц","stop_direction":"в сторону города Ижевска","stop_type":2,"stop_lat":56.840179245731,"stop_long":53.338431794765,"stop_final_name":null,"stop_demand":0,"stop_start_time":null,"stop_photo_exist":false},{"stop_id":316,"stop_name":"улица Мельничная","stop_name_short":"ул. Мельничная","stop_name_abbr":"Мельничн","stop_direction":"в сторону Металлобазы","stop_type":2,"stop_lat":56.825148066259,"stop_long":53.262065050322,"stop_final_name":null,"stop_demand":0,"stop_start_time":null,"stop_photo_exist":true},{"stop_id":317,"stop_name":"улица Камская","stop_name_short":"ул. Камская","stop_name_abbr":"Камская","stop_direction":"в сторону Металлобазы","stop_type":2,"stop_lat":56.824402469062,"stop_long":53.256539692672,"stop_final_name":null,"stop_demand":0,"stop_start_time":null,"stop_photo_exist":true},{"stop_id":318,"stop_name":"улица Маркина","stop_name_short":"ул. Маркина","stop_name_abbr":"Маркина","stop_direction":"в сторону Металлобазы","stop_type":2,"stop_lat":56.82342316201,"stop_long":53.249994298017,"stop_final_name":null,"stop_demand":0,"stop_start_time":null,"stop_photo_exist":true},{"stop_id":319,"stop_name":"улица Мельничная","stop_name_short":"ул. Мельничная","stop_name_abbr":"Мельничн","stop_direction":"в сторону улицы Красноармейской","stop_type":2,"stop_lat":56.825174462723,"stop_long":53.261281899057,"stop_final_name":null,"stop_demand":0,"stop_start_time":null,"stop_photo_exist":true},{"stop_id":320,"stop_name":"улица Камская","stop_name_short":"ул. Камская","stop_name_abbr":"Камская","stop_direction":"в сторону улицы Красноармейской","stop_type":2,"stop_lat":56.824381921671,"stop_long":53.255461444836,"stop_final_name":null,"stop_demand":0,"stop_start_time":null,"stop_photo_exist":true},{"stop_id":321,"stop_name":"улица Маркина","stop_name_short":"ул. Маркина","stop_name_abbr":"Маркина","stop_direction":"в сторону улицы Красноармейской","stop_type":2,"stop_lat":56.823499454694,"stop_long":53.249532833456,"stop_final_name":null,"stop_demand":0,"stop_start_time":null,"stop_photo_exist":true},{"stop_id":322,"stop_name":"улица Гусева","stop_name_short":"ул. Гусева","stop_name_abbr":"Гусева","stop_direction":"в сторону Металлобазы","stop_type":2,"stop_lat":56.823210652637,"stop_long":53.236562598058,"stop_final_name":null,"stop_demand":0,"stop_start_time":null,"stop_photo_exist":true},{"stop_id":323,"stop_name":"улица Гусева","stop_name_short":"ул. Гусева","stop_name_abbr":"Гусева","stop_direction":"в сторону улицы Красноармейской","stop_type":2,"stop_lat":56.823330991194,"stop_long":53.235693567852,"stop_final_name":null,"stop_demand":0,"stop_start_time":null,"stop_photo_exist":true},{"stop_id":324,"stop_name":"улица Контейнерная","stop_name_short":"ул. Контейнерная","stop_name_abbr":"Контейн","stop_direction":"в сторону Металлобазы","stop_type":2,"stop_lat":56.822858384849,"stop_long":53.24205579602,"stop_final_name":null,"stop_demand":0,"stop_start_time":null,"stop_photo_exist":true},{"stop_id":325,"stop_name":"улица Контейнерная","stop_name_short":"ул. Контейнерная","stop_name_abbr":"Контейн","stop_direction":"в сторону улицы Красноармейской","stop_type":2,"stop_lat":56.822987523871,"stop_long":53.242946295961,"stop_final_name":null,"stop_demand":0,"stop_start_time":null,"stop_photo_exist":true},{"stop_id":326,"stop_name":"Металлобаза","stop_name_short":"Металлобаза","stop_name_abbr":"Мет база","stop_direction":"конечная остановка","stop_type":2,"stop_lat":56.827649060118,"stop_long":53.27723545921,"stop_final_name":"Металлобазы","stop_demand":0,"stop_start_time":null,"stop_photo_exist":true},{"stop_id":327,"stop_name":"по требованию","stop_name_short":"по требованию","stop_name_abbr":"по треб","stop_direction":"в сторону улицы Красноармейской","stop_type":2,"stop_lat":56.826220327769,"stop_long":53.269558167601,"stop_final_name":null,"stop_demand":1,"stop_start_time":null,"stop_photo_exist":true},{"stop_id":328,"stop_name":"по требованию","stop_name_short":"по требованию","stop_name_abbr":"по треб","stop_direction":"в сторону Металлобазы","stop_type":2,"stop_lat":56.826239989379,"stop_long":53.27066956327,"stop_final_name":null,"stop_demand":1,"stop_start_time":null,"stop_photo_exist":true},{"stop_id":329,"stop_name":"улица Ракетная","stop_name_short":"ул. Ракетная","stop_name_abbr":"Ракетная","stop_direction":"в сторону улицы Орджоникидзе","stop_type":2,"stop_lat":56.830615289138,"stop_long":53.278729204296,"stop_final_name":null,"stop_demand":0,"stop_start_time":null,"stop_photo_exist":true},{"stop_id":330,"stop_name":"Электросети","stop_name_short":"Электросети","stop_name_abbr":"Эл сети","stop_direction":"в сторону Московской улицы","stop_type":2,"stop_lat":56.791101122962,"stop_long":53.183842740977,"stop_final_name":null,"stop_demand":0,"stop_start_time":null,"stop_photo_exist":true},{"stop_id":331,"stop_name":"Электросети","stop_name_short":"Электросети","stop_name_abbr":"Эл сети","stop_direction":"в сторону Механизаторской улицы","stop_type":2,"stop_lat":56.790489945781,"stop_long":53.18351735176,"stop_final_name":null,"stop_demand":0,"stop_start_time":null,"stop_photo_exist":true},{"stop_id":332,"stop_name":"Геофизика","stop_name_short":"Геофизика","stop_name_abbr":"Геофизик","stop_direction":"конечная остановка","stop_type":2,"stop_lat":56.785338577462,"stop_long":53.181833897472,"stop_final_name":"Геофизики","stop_demand":0,"stop_start_time":null,"stop_photo_exist":true},{"stop_id":333,"stop_name":"улица Механизаторская","stop_name_short":"ул. Механизаторская","stop_name_abbr":"Механиз","stop_direction":"в сторону Транссельхозтехники","stop_type":2,"stop_lat":56.788991981409,"stop_long":53.183104742024,"stop_final_name":null,"stop_demand":0,"stop_start_time":null,"stop_photo_exist":true},{"stop_id":334,"stop_name":"Железнодорожная больница","stop_name_short":"Ж\/д больница","stop_name_abbr":"Жд больн","stop_direction":"в сторону Локомотивной улицы","stop_type":2,"stop_lat":56.788938700768,"stop_long":53.177904863423,"stop_final_name":null,"stop_demand":0,"stop_start_time":null,"stop_photo_exist":true},{"stop_id":335,"stop_name":"улица Механизаторская","stop_name_short":"ул. Механизаторская","stop_name_abbr":"Механиз","stop_direction":"в сторону Механизаторской улицы","stop_type":2,"stop_lat":56.78801262192,"stop_long":53.182924987746,"stop_final_name":null,"stop_demand":0,"stop_start_time":null,"stop_photo_exist":true},{"stop_id":336,"stop_name":"улица Леваневского","stop_name_short":"ул. Леваневского","stop_name_abbr":"Леваневс","stop_direction":"в сторону микрорайона Бригада Самолет","stop_type":2,"stop_lat":56.794792659384,"stop_long":53.180340098696,"stop_final_name":null,"stop_demand":0,"stop_start_time":null,"stop_photo_exist":false},{"stop_id":337,"stop_name":"поселок Шунды","stop_name_short":"пос. Шунды","stop_name_abbr":"Шунды","stop_direction":"конечная остановка","stop_type":2,"stop_lat":56.799961647958,"stop_long":53.14237124521,"stop_final_name":"Шунды","stop_demand":0,"stop_start_time":null,"stop_photo_exist":true},{"stop_id":338,"stop_name":"улица Калининградская","stop_name_short":"ул. Калининградская","stop_name_abbr":"Калининг","stop_direction":"в сторону улицы Азина","stop_type":2,"stop_lat":56.800577380453,"stop_long":53.148997968265,"stop_final_name":null,"stop_demand":0,"stop_start_time":null,"stop_photo_exist":true},{"stop_id":339,"stop_name":"улица Тракторная","stop_name_short":"ул. Тракторная","stop_name_abbr":"Тракторн","stop_direction":"в сторону деревни Пирогово","stop_type":2,"stop_lat":56.798728173067,"stop_long":53.160411333444,"stop_final_name":null,"stop_demand":0,"stop_start_time":null,"stop_photo_exist":true},{"stop_id":340,"stop_name":"улица Калининградская","stop_name_short":"ул. Калининградская","stop_name_abbr":"Калининг","stop_direction":"в сторону поселка Шунды","stop_type":2,"stop_lat":56.800627305919,"stop_long":53.148654632163,"stop_final_name":null,"stop_demand":0,"stop_start_time":null,"stop_photo_exist":true},{"stop_id":341,"stop_name":"улица Фурманова","stop_name_short":"ул. Фурманова","stop_name_abbr":"Фурманов","stop_direction":"в сторону улицы Московской","stop_type":2,"stop_lat":56.793311095677,"stop_long":53.157964410707,"stop_final_name":null,"stop_demand":0,"stop_start_time":null,"stop_photo_exist":true},{"stop_id":342,"stop_name":"улица Фурманова","stop_name_short":"ул. Фурманова","stop_name_abbr":"Фурманов","stop_direction":"в сторону деревни Пирогово","stop_type":2,"stop_lat":56.79301164983,"stop_long":53.157729952153,"stop_final_name":"Фурманова","stop_demand":0,"stop_start_time":null,"stop_photo_exist":true},{"stop_id":343,"stop_name":"улица Степная","stop_name_short":"ул. Степная","stop_name_abbr":"Степная","stop_direction":"в сторону микрорайона Бригада Самолет","stop_type":2,"stop_lat":56.795320444876,"stop_long":53.174039052053,"stop_final_name":null,"stop_demand":0,"stop_start_time":null,"stop_photo_exist":true},{"stop_id":344,"stop_name":"улица Василия Зайцева","stop_name_short":"ул. Василия Зайцева","stop_name_abbr":"Зайцева","stop_direction":"в сторону микрорайона Бригада Самолет","stop_type":2,"stop_lat":56.796104603135,"stop_long":53.16303112083,"stop_final_name":null,"stop_demand":0,"stop_start_time":null,"stop_photo_exist":true},{"stop_id":345,"stop_name":"улица Тракторная","stop_name_short":"ул. Тракторная","stop_name_abbr":"Тракторн","stop_direction":"в сторону Областной улицы","stop_type":2,"stop_lat":56.799484512567,"stop_long":53.161470896322,"stop_final_name":null,"stop_demand":0,"stop_start_time":null,"stop_photo_exist":true},{"stop_id":346,"stop_name":"улица Тракторная","stop_name_short":"ул. Тракторная","stop_name_abbr":"Тракторн","stop_direction":"в сторону Шунды","stop_type":2,"stop_lat":56.799513949495,"stop_long":53.160714241543,"stop_final_name":null,"stop_demand":0,"stop_start_time":null,"stop_photo_exist":false},{"stop_id":347,"stop_name":"улица Василия Зайцева","stop_name_short":"ул. Василия Зайцева","stop_name_abbr":"Зайцева","stop_direction":"в сторону улицы Гагарина","stop_type":2,"stop_lat":56.796209361319,"stop_long":53.162467561869,"stop_final_name":null,"stop_demand":0,"stop_start_time":null,"stop_photo_exist":true},{"stop_id":348,"stop_name":"микрорайон Чистопрудный","stop_name_short":"мкрн Чистопрудный","stop_name_abbr":"ЧистПруд","stop_direction":"в сторону Як-Бодьинского тракта","stop_type":2,"stop_lat":56.944393376864,"stop_long":53.134047075686,"stop_final_name":null,"stop_demand":0,"stop_start_time":null,"stop_photo_exist":true},{"stop_id":349,"stop_name":"14-й километр","stop_name_short":"14-й км","stop_name_abbr":"14-й км","stop_direction":"в сторону поселка Игерман","stop_type":2,"stop_lat":56.943838758318,"stop_long":53.127808262526,"stop_final_name":null,"stop_demand":0,"stop_start_time":null,"stop_photo_exist":true},{"stop_id":350,"stop_name":"14-й километр","stop_name_short":"14-й км","stop_name_abbr":"14-й км","stop_direction":"в сторону города Ижевска","stop_type":2,"stop_lat":56.943631562807,"stop_long":53.127536048318,"stop_final_name":null,"stop_demand":0,"stop_start_time":null,"stop_photo_exist":true},{"stop_id":351,"stop_name":"микрорайон Чистопрудный","stop_name_short":"мкрн Чистопрудный","stop_name_abbr":"ЧистПруд","stop_direction":"в сторону поселка Игерман","stop_type":2,"stop_lat":56.944334079704,"stop_long":53.134466910061,"stop_final_name":null,"stop_demand":0,"stop_start_time":null,"stop_photo_exist":true},{"stop_id":352,"stop_name":"14-й километр","stop_name_short":"14-й км","stop_name_abbr":"14-й км","stop_direction":"в сторону города Ижевска","stop_type":2,"stop_lat":56.944097776605,"stop_long":53.126864516396,"stop_final_name":null,"stop_demand":0,"stop_start_time":null,"stop_photo_exist":false},{"stop_id":353,"stop_name":"поселок Югдон","stop_name_short":"пос. Югдон","stop_name_abbr":"Югдон","stop_direction":"в сторону поселка Воложка","stop_type":2,"stop_lat":56.943149586879,"stop_long":53.099399966359,"stop_final_name":null,"stop_demand":0,"stop_start_time":null,"stop_photo_exist":false},{"stop_id":354,"stop_name":"поселок Югдон","stop_name_short":"пос. Югдон","stop_name_abbr":"Югдон","stop_direction":"в сторону города Ижевска","stop_type":2,"stop_lat":56.942664044381,"stop_long":53.099042983973,"stop_final_name":null,"stop_demand":0,"stop_start_time":null,"stop_photo_exist":false},{"stop_id":355,"stop_name":"Воложка","stop_name_short":"Воложка","stop_name_abbr":"Воложка","stop_direction":"конечная остановка","stop_type":2,"stop_lat":56.931521653489,"stop_long":53.088831175326,"stop_final_name":"Воложки","stop_demand":0,"stop_start_time":null,"stop_photo_exist":false},{"stop_id":356,"stop_name":"Воложка","stop_name_short":"Воложка","stop_name_abbr":"Воложка","stop_direction":"начальная остановка","stop_type":2,"stop_lat":56.931559597189,"stop_long":53.088745701282,"stop_final_name":null,"stop_demand":0,"stop_start_time":null,"stop_photo_exist":false},{"stop_id":357,"stop_name":"Транссельхозтехника","stop_name_short":"Транссельхозтехника","stop_name_abbr":"Транссел","stop_direction":"конечная остановка","stop_type":2,"stop_lat":56.781681789722,"stop_long":53.180920534539,"stop_final_name":"Транссельхозтехники","stop_demand":0,"stop_start_time":null,"stop_photo_exist":true},{"stop_id":358,"stop_name":"микрорайон Бригада Самолет","stop_name_short":"мкрн Бригада Самолет","stop_name_abbr":"Бр Самол","stop_direction":"конечная остановка","stop_type":2,"stop_lat":56.771303112227,"stop_long":53.201419010853,"stop_final_name":"Бригады Самолет","stop_demand":0,"stop_start_time":null,"stop_photo_exist":true},{"stop_id":359,"stop_name":"Самолет","stop_name_short":"Самолет","stop_name_abbr":"Самолет","stop_direction":"в сторону микрорайона Бригада Самолет","stop_type":2,"stop_lat":56.776548866634,"stop_long":53.182751169019,"stop_final_name":null,"stop_demand":0,"stop_start_time":null,"stop_photo_exist":true},{"stop_id":360,"stop_name":"Самолет","stop_name_short":"Самолет","stop_name_abbr":"Самолет","stop_direction":"в сторону города Ижевска","stop_type":2,"stop_lat":56.776739624537,"stop_long":53.183354023583,"stop_final_name":null,"stop_demand":0,"stop_start_time":null,"stop_photo_exist":true},{"stop_id":361,"stop_name":"микрорайон Нагорный","stop_name_short":"мкрн Нагорный","stop_name_abbr":"Нагорный","stop_direction":"в сторону Московской улицы","stop_type":2,"stop_lat":56.789860750816,"stop_long":53.17457577184,"stop_final_name":"Нагорного","stop_demand":0,"stop_start_time":null,"stop_photo_exist":true},{"stop_id":362,"stop_name":"улица Динамовская","stop_name_short":"ул. Динамовская","stop_name_abbr":"Динамов","stop_direction":"в сторону Московской улицы","stop_type":2,"stop_lat":56.79180365641,"stop_long":53.175122924234,"stop_final_name":null,"stop_demand":0,"stop_start_time":null,"stop_photo_exist":true},{"stop_id":363,"stop_name":"поселок Пирогово","stop_name_short":"пос. Пирогово","stop_name_abbr":"Пирогово","stop_direction":"в сторону улицы Московской","stop_type":2,"stop_lat":56.787234413281,"stop_long":53.163017629104,"stop_final_name":null,"stop_demand":0,"stop_start_time":null,"stop_photo_exist":false},{"stop_id":364,"stop_name":"деревня Пирогово","stop_name_short":"дер. Пирогово","stop_name_abbr":"Пирогово","stop_direction":"в сторону села Малая Пурга","stop_type":2,"stop_lat":56.78710712761,"stop_long":53.162746234531,"stop_final_name":null,"stop_demand":0,"stop_start_time":null,"stop_photo_exist":false},{"stop_id":365,"stop_name":"улица Московская (в том числе тупик)","stop_name_short":"ул. Московская","stop_name_abbr":"Московск","stop_direction":"начальная остановка","stop_type":3,"stop_lat":56.795967178126,"stop_long":53.185286132819,"stop_final_name":null,"stop_demand":0,"stop_start_time":null,"stop_photo_exist":true},{"stop_id":366,"stop_name":"улица Московская","stop_name_short":"ул. Московская","stop_name_abbr":"Московск","stop_direction":"в сторону Московской улицы","stop_type":2,"stop_lat":56.795822941831,"stop_long":53.18503081809,"stop_final_name":null,"stop_demand":0,"stop_start_time":null,"stop_photo_exist":true},{"stop_id":367,"stop_name":"Железнодорожный вокзал","stop_name_short":"Ж\/д вокзал","stop_name_abbr":"Ж\/д вокз","stop_direction":"в сторону Московской улицы","stop_type":2,"stop_lat":56.801418332851,"stop_long":53.186734486552,"stop_final_name":null,"stop_demand":0,"stop_start_time":null,"stop_photo_exist":true},{"stop_id":368,"stop_name":"улица Московская","stop_name_short":"ул. Московская","stop_name_abbr":"Московск","stop_direction":"конечная остановка","stop_type":3,"stop_lat":56.795615884041,"stop_long":53.185159739859,"stop_final_name":"Московской","stop_demand":0,"stop_start_time":null,"stop_photo_exist":true},{"stop_id":369,"stop_name":"улица Степная","stop_name_short":"ул. Степная","stop_name_abbr":"Степная","stop_direction":"в сторону улицы Азина","stop_type":2,"stop_lat":56.79528440691,"stop_long":53.173707919155,"stop_final_name":null,"stop_demand":0,"stop_start_time":null,"stop_photo_exist":true},{"stop_id":370,"stop_name":"улица Московская","stop_name_short":"ул. Московская","stop_name_abbr":"Московск","stop_direction":"в сторону Московской улицы","stop_type":2,"stop_lat":56.79464774237,"stop_long":53.17599554007,"stop_final_name":null,"stop_demand":0,"stop_start_time":null,"stop_photo_exist":true},{"stop_id":371,"stop_name":"Ижевская соборная мечеть","stop_name_short":"Соборная мечеть","stop_name_abbr":"С Мечеть","stop_direction":"в сторону деревни Пирогово","stop_type":2,"stop_lat":56.804246157856,"stop_long":53.165670764234,"stop_final_name":null,"stop_demand":0,"stop_start_time":null,"stop_photo_exist":true},{"stop_id":372,"stop_name":"деревня Пирогово","stop_name_short":"дер. Пирогово","stop_name_abbr":"Пирогово","stop_direction":"в сторону города Ижевска","stop_type":2,"stop_lat":56.775646040567,"stop_long":53.16314113393,"stop_final_name":null,"stop_demand":0,"stop_start_time":null,"stop_photo_exist":true},{"stop_id":373,"stop_name":"деревня Пирогово","stop_name_short":"дер. Пирогово","stop_name_abbr":"Пирогово","stop_direction":"в сторону села Малая Пурга","stop_type":2,"stop_lat":56.775516689166,"stop_long":53.162749558297,"stop_final_name":null,"stop_demand":0,"stop_start_time":null,"stop_photo_exist":true},{"stop_id":374,"stop_name":"деревня Пирогово","stop_name_short":"дер. Пирогово","stop_name_abbr":"Пирогово","stop_direction":"в сторону города Ижевска","stop_type":2,"stop_lat":56.777698853711,"stop_long":53.15035028165,"stop_final_name":null,"stop_demand":0,"stop_start_time":null,"stop_photo_exist":false},{"stop_id":375,"stop_name":"улица Пойма","stop_name_short":"ул. Пойма","stop_name_abbr":"Пойма","stop_direction":"в сторону улицы Азина","stop_type":2,"stop_lat":56.775750321427,"stop_long":53.172145737422,"stop_final_name":null,"stop_demand":0,"stop_start_time":null,"stop_photo_exist":false},{"stop_id":376,"stop_name":"улица Пойма","stop_name_short":"ул. Пойма","stop_name_abbr":"Пойма","stop_direction":"в сторону микрорайона Бригада Самолет","stop_type":2,"stop_lat":56.775640757856,"stop_long":53.172940155797,"stop_final_name":null,"stop_demand":0,"stop_start_time":null,"stop_photo_exist":false},{"stop_id":377,"stop_name":"поворот на Лудорвай","stop_name_short":"пов. на Лудорвай","stop_name_abbr":"~Лудорв","stop_direction":"в сторону села Нылга","stop_type":2,"stop_lat":56.765036393409,"stop_long":53.103632302318,"stop_final_name":null,"stop_demand":0,"stop_start_time":null,"stop_photo_exist":false},{"stop_id":378,"stop_name":"деревня Лудорвай","stop_name_short":"дер. Лудорвай","stop_name_abbr":"Лудорвай","stop_direction":"конечная остановка","stop_type":2,"stop_lat":56.758282356794,"stop_long":53.099411577095,"stop_final_name":"Лудорвая","stop_demand":0,"stop_start_time":null,"stop_photo_exist":false},{"stop_id":379,"stop_name":"деревня Лудорвай","stop_name_short":"дер. Лудорвай","stop_name_abbr":"Лудорвай","stop_direction":"начальная остановка","stop_type":2,"stop_lat":56.758369592758,"stop_long":53.099681858109,"stop_final_name":null,"stop_demand":0,"stop_start_time":null,"stop_photo_exist":false},{"stop_id":380,"stop_name":"поворот на Лудорвай","stop_name_short":"пов. на Лудорвай","stop_name_abbr":"~Лудорв","stop_direction":"в сторону города Ижевска","stop_type":2,"stop_lat":56.764876655038,"stop_long":53.103360462732,"stop_final_name":null,"stop_demand":0,"stop_start_time":null,"stop_photo_exist":false},{"stop_id":381,"stop_name":"деревня Большая Венья","stop_name_short":"дер. Большая Венья","stop_name_abbr":"Б. Венья","stop_direction":"в сторону села Малая Пурга","stop_type":2,"stop_lat":56.73316136494,"stop_long":53.155727725739,"stop_final_name":null,"stop_demand":0,"stop_start_time":null,"stop_photo_exist":false},{"stop_id":382,"stop_name":"деревня Большая Венья","stop_name_short":"дер. Большая Венья","stop_name_abbr":"Б. Венья","stop_direction":"в сторону города Ижевска","stop_type":2,"stop_lat":56.733093005793,"stop_long":53.156136004652,"stop_final_name":null,"stop_demand":0,"stop_start_time":null,"stop_photo_exist":false},{"stop_id":383,"stop_name":"деревня Малая Венья","stop_name_short":"дер. Малая Венья","stop_name_abbr":"М Венья","stop_direction":"в сторону города Можги","stop_type":2,"stop_lat":56.750941551807,"stop_long":53.160635003535,"stop_final_name":null,"stop_demand":0,"stop_start_time":null,"stop_photo_exist":false},{"stop_id":384,"stop_name":"деревня Малая Венья","stop_name_short":"дер. Малая Венья","stop_name_abbr":"М Венья","stop_direction":"в сторону города Ижевска","stop_type":2,"stop_lat":56.751088579103,"stop_long":53.160852581297,"stop_final_name":null,"stop_demand":0,"stop_start_time":null,"stop_photo_exist":false},{"stop_id":385,"stop_name":"совхоз 5 лет УАССР","stop_name_short":"с-з 5 лет УАССР","stop_name_abbr":"5л УАССР","stop_direction":"в сторону улицы 40 лет Победы","stop_type":2,"stop_lat":56.837629681597,"stop_long":53.288664716019,"stop_final_name":null,"stop_demand":0,"stop_start_time":null,"stop_photo_exist":true},{"stop_id":386,"stop_name":"улица Камбарская","stop_name_short":"ул. Камбарская","stop_name_abbr":"Камбарск","stop_direction":"в сторону улицы 40 лет Победы","stop_type":2,"stop_lat":56.839227095369,"stop_long":53.294702192067,"stop_final_name":null,"stop_demand":0,"stop_start_time":null,"stop_photo_exist":true},{"stop_id":387,"stop_name":"совхоз 5 лет УАО","stop_name_short":"с-з 5 лет УАО","stop_name_abbr":"5л.УАО","stop_direction":"В сторону улицы Орджоникидзе","stop_type":2,"stop_lat":56.838311780533,"stop_long":53.290404191952,"stop_final_name":null,"stop_demand":0,"stop_start_time":null,"stop_photo_exist":false},{"stop_id":388,"stop_name":"совхоз 5 лет УАССР","stop_name_short":"с-з 5 лет УАССР","stop_name_abbr":"5л УАССР","stop_direction":"в сторону улицы Ленина","stop_type":2,"stop_lat":56.838246364347,"stop_long":53.290526395738,"stop_final_name":null,"stop_demand":0,"stop_start_time":null,"stop_photo_exist":false},{"stop_id":389,"stop_name":"улица Камбарская","stop_name_short":"ул. Камбарская","stop_name_abbr":"Камбарск","stop_direction":"в сторону улицы Ленина","stop_type":2,"stop_lat":56.839133607661,"stop_long":53.294759447171,"stop_final_name":null,"stop_demand":0,"stop_start_time":null,"stop_photo_exist":false},{"stop_id":390,"stop_name":"Гаражи","stop_name_short":"Гаражи","stop_name_abbr":"Гаражи","stop_direction":"в сторону Аэропорта","stop_type":2,"stop_lat":56.839574179849,"stop_long":53.310822280177,"stop_final_name":null,"stop_demand":0,"stop_start_time":null,"stop_photo_exist":true},{"stop_id":391,"stop_name":"Гаражи","stop_name_short":"Гаражи","stop_name_abbr":"Гаражи","stop_direction":"в сторону улицы Ленина","stop_type":2,"stop_lat":56.839820598641,"stop_long":53.312214309541,"stop_final_name":null,"stop_demand":0,"stop_start_time":null,"stop_photo_exist":true},{"stop_id":392,"stop_name":"улица Ракетная","stop_name_short":"ул. Ракетная","stop_name_abbr":"Ракетная","stop_direction":"конечная остановка","stop_type":2,"stop_lat":56.832298097108,"stop_long":53.284643010551,"stop_final_name":"Ракетной","stop_demand":0,"stop_start_time":null,"stop_photo_exist":true},{"stop_id":393,"stop_name":"улица Молодежная","stop_name_short":"ул. Молодежная","stop_name_abbr":"Молодежн","stop_direction":"в сторону улицы Петрова","stop_type":2,"stop_lat":56.852849296988,"stop_long":53.292250689656,"stop_final_name":null,"stop_demand":0,"stop_start_time":null,"stop_photo_exist":true},{"stop_id":394,"stop_name":"Проспект Калашникова","stop_name_short":"пр-т Калашникова","stop_name_abbr":"Калашник","stop_direction":"в сторону улицы Сабурова","stop_type":2,"stop_lat":56.8565537733,"stop_long":53.291864414084,"stop_final_name":null,"stop_demand":0,"stop_start_time":null,"stop_photo_exist":true},{"stop_id":395,"stop_name":"улица Молодежная","stop_name_short":"ул. Молодежная","stop_name_abbr":"Молодежн","stop_direction":"в сторону улицы Ленина","stop_type":2,"stop_lat":56.851494125985,"stop_long":53.291494308187,"stop_final_name":"Молодежной","stop_demand":0,"stop_start_time":null,"stop_photo_exist":true},{"stop_id":396,"stop_name":"Проспект Калашникова","stop_name_short":"пр-т Калашникова","stop_name_abbr":"Калашник","stop_direction":"в сторону улицы Ленина","stop_type":2,"stop_lat":56.856245825854,"stop_long":53.291494308187,"stop_final_name":null,"stop_demand":0,"stop_start_time":null,"stop_photo_exist":true},{"stop_id":397,"stop_name":"магазин Жигули","stop_name_short":"м-н Жигули","stop_name_abbr":"Жигули","stop_direction":"в сторону улицы Ленина","stop_type":2,"stop_lat":56.86891604783,"stop_long":53.30286891956,"stop_final_name":null,"stop_demand":0,"stop_start_time":null,"stop_photo_exist":true},{"stop_id":398,"stop_name":"Автокооператив Луч","stop_name_short":"Автокооператив Луч","stop_name_abbr":"Луч","stop_direction":"в сторону улицы Барышникова","stop_type":2,"stop_lat":56.864175843873,"stop_long":53.304006999354,"stop_final_name":null,"stop_demand":0,"stop_start_time":null,"stop_photo_exist":true},{"stop_id":399,"stop_name":"магазин Жигули","stop_name_short":"м-н Жигули","stop_name_abbr":"Жигули","stop_direction":"в сторону улицы Сабурова","stop_type":2,"stop_lat":56.867859489027,"stop_long":53.303291865817,"stop_final_name":null,"stop_demand":0,"stop_start_time":null,"stop_photo_exist":true},{"stop_id":400,"stop_name":"Автокооператив Луч","stop_name_short":"Автокооператив Луч","stop_name_abbr":"Луч","stop_direction":"в сторону улицы Ленина","stop_type":2,"stop_lat":56.863607774868,"stop_long":53.303936376166,"stop_final_name":null,"stop_demand":0,"stop_start_time":null,"stop_photo_exist":true},{"stop_id":401,"stop_name":"улица Союзная","stop_name_short":"ул. Союзная","stop_name_abbr":"Союзная","stop_direction":"в сторону улицы Барышникова","stop_type":2,"stop_lat":56.851958278678,"stop_long":53.305956039688,"stop_final_name":null,"stop_demand":0,"stop_start_time":null,"stop_photo_exist":true},